{
    "51.79.142.39": {
        "country_iso": "SG",
        "country": "Singapore",
        "city": "Singapore",
        "lat": 1.2868,
        "lon": 103.8503
    },
    "89.234.186.121": {
        "country_iso": "FR",
        "country": "France",
        "city": null,
        "lat": 48.8582,
        "lon": 2.3387
    },
    "195.157.9.4": {
        "country_iso": "GB",
        "country": "United Kingdom",
        "city": null,
        "lat": 51.4964,
        "lon": -0.1224
    },
    "185.80.247.106": {
        "country_iso": "NL",
        "country": "Netherlands",
        "city": null,
        "lat": 52.3824,
        "lon": 4.8995
    },
    "46.245.255.5": {
        "country_iso": "GB",
        "country": "United Kingdom",
        "city": null,
        "lat": 51.4964,
        "lon": -0.1224
    },
    "185.54.92.71": {
        "country_iso": "NL",
        "country": "Netherlands",
        "city": null,
        "lat": 52.3824,
        "lon": 4.8995
    },
    "190.103.186.186": {
        "country_iso": "US",
        "country": "United States",
        "city": null,
        "lat": 37.751,
        "lon": -97.822
    },
    "5.102.147.137": {
        "country_iso": "CH",
        "country": "Switzerland",
        "city": "Cartigny",
        "lat": 46.1792,
        "lon": 6.0159
    },
    "78.128.211.50": {
        "country_iso": "CZ",
        "country": "Czechia",
        "city": "Zbiroh",
        "lat": 49.8535,
        "lon": 13.7652
    },
    "70.224.199.231": {
        "country_iso": "US",
        "country": "United States",
        "city": "Los Angeles",
        "lat": 34.0544,
        "lon": -118.2441
    },
    "129.13.55.214": {
        "country_iso": "DE",
        "country": "Germany",
        "city": "Heidelberg",
        "lat": 49.4193,
        "lon": 8.7318
    },
    "139.162.229.237": {
        "country_iso": "GB",
        "country": "United Kingdom",
        "city": "London",
        "lat": 51.5164,
        "lon": -0.093
    },
    "92.63.161.60": {
        "country_iso": "NL",
        "country": "Netherlands",
        "city": null,
        "lat": 52.3824,
        "lon": 4.8995
    },
    "196.10.55.133": {
        "country_iso": "ZA",
        "country": "South Africa",
        "city": null,
        "lat": -29,
        "lon": 24
    },
    "88.81.97.211": {
        "country_iso": "IE",
        "country": "Ireland",
        "city": "Castlebar",
        "lat": 53.8465,
        "lon": -9.2967
    },
    "204.130.133.181": {
        "country_iso": "US",
        "country": "United States",
        "city": null,
        "lat": 37.751,
        "lon": -97.822
    },
    "103.3.60.146": {
        "country_iso": "SG",
        "country": "Singapore",
        "city": "Singapore",
        "lat": 1.3036,
        "lon": 103.8554
    },
    "38.100.118.29": {
        "country_iso": "US",
        "country": "United States",
        "city": "Palatine",
        "lat": 42.1112,
        "lon": -88.0439
    },
    "134.0.17.134": {
        "country_iso": "GB",
        "country": "United Kingdom",
        "city": null,
        "lat": 51.4964,
        "lon": -0.1224
    },
    "199.189.66.254": {
        "country_iso": "US",
        "country": "United States",
        "city": null,
        "lat": 37.751,
        "lon": -97.822
    },
    "195.30.193.17": {
        "country_iso": "DE",
        "country": "Germany",
        "city": null,
        "lat": 51.2993,
        "lon": 9.491
    },
    "82.195.73.60": {
        "country_iso": "DE",
        "country": "Germany",
        "city": "Geisenheim",
        "lat": 49.9796,
        "lon": 7.974
    },
    "46.226.109.152": {
        "country_iso": "FR",
        "country": "France",
        "city": null,
        "lat": 48.8582,
        "lon": 2.3387
    },
    "185.101.97.120": {
        "country_iso": "US",
        "country": "United States",
        "city": "Fremont",
        "lat": 37.5172,
        "lon": -121.9191
    },
    "92.243.16.165": {
        "country_iso": "FR",
        "country": "France",
        "city": null,
        "lat": 48.8582,
        "lon": 2.3387
    },
    "199.19.52.229": {
        "country_iso": "US",
        "country": "United States",
        "city": null,
        "lat": 37.751,
        "lon": -97.822
    },
    "46.22.180.60": {
        "country_iso": "NL",
        "country": "Netherlands",
        "city": "Amsterdam",
        "lat": 52.3672,
        "lon": 4.918
    },
    "185.33.216.100": {
        "country_iso": "DE",
        "country": "Germany",
        "city": null,
        "lat": 51.2993,
        "lon": 9.491
    },
    "212.103.89.212": {
        "country_iso": "CH",
        "country": "Switzerland",
        "city": "Lyss",
        "lat": 47.0811,
        "lon": 7.3095
    },
    "185.26.50.99": {
        "country_iso": "FI",
        "country": "Finland",
        "city": null,
        "lat": 60.1717,
        "lon": 24.9349
    },
    "85.158.27.42": {
        "country_iso": "CH",
        "country": "Switzerland",
        "city": null,
        "lat": 47.1449,
        "lon": 8.1551
    },
    "185.173.16.145": {
        "country_iso": "RO",
        "country": "Romania",
        "city": null,
        "lat": 45.9968,
        "lon": 24.997
    },
    "212.224.84.34": {
        "country_iso": "DE",
        "country": "Germany",
        "city": null,
        "lat": 51.2993,
        "lon": 9.491
    },
    "193.32.86.6": {
        "country_iso": "DE",
        "country": "Germany",
        "city": null,
        "lat": 51.2993,
        "lon": 9.491
    },
    "45.145.108.80": {
        "country_iso": "NL",
        "country": "Netherlands",
        "city": "Oss",
        "lat": 51.7813,
        "lon": 5.508
    },
    "41.60.207.30": {
        "country_iso": "ZW",
        "country": "Zimbabwe",
        "city": null,
        "lat": -19,
        "lon": 29.75
    },
    "193.189.139.240": {
        "country_iso": "NL",
        "country": "Netherlands",
        "city": null,
        "lat": 52.3824,
        "lon": 4.8995
    },
    "94.237.47.105": {
        "country_iso": "FI",
        "country": "Finland",
        "city": null,
        "lat": 60.1717,
        "lon": 24.9349
    },
    "13.49.16.77": {
        "country_iso": "SE",
        "country": "Sweden",
        "city": "Stockholm",
        "lat": 59.3287,
        "lon": 18.0717
    },
    "54.223.49.236": {
        "country_iso": "CN",
        "country": "China",
        "city": null,
        "lat": 28.1822,
        "lon": 113.1051
    },
    "119.18.35.7": {
        "country_iso": "AU",
        "country": "Australia",
        "city": "Brisbane",
        "lat": -27.4437,
        "lon": 153.0244
    },
    "185.66.195.243": {
        "country_iso": "DE",
        "country": "Germany",
        "city": "M\u00fcnster",
        "lat": 51.972,
        "lon": 7.6002
    },
    "185.53.57.183": {
        "country_iso": "GB",
        "country": "United Kingdom",
        "city": null,
        "lat": 51.4964,
        "lon": -0.1224
    },
    "163.47.21.112": {
        "country_iso": "NZ",
        "country": "New Zealand",
        "city": "Auckland",
        "lat": -36.8506,
        "lon": 174.7679
    },
    "216.73.73.230": {
        "country_iso": "CA",
        "country": "Canada",
        "city": "Winnipeg",
        "lat": 49.884,
        "lon": -97.1288
    },
    "174.137.148.20": {
        "country_iso": "US",
        "country": "United States",
        "city": null,
        "lat": 37.751,
        "lon": -97.822
    },
    "37.187.111.58": {
        "country_iso": "FR",
        "country": "France",
        "city": null,
        "lat": 48.8582,
        "lon": 2.3387
    },
    "209.151.152.165": {
        "country_iso": "US",
        "country": "United States",
        "city": "Wilmington",
        "lat": 39.7356,
        "lon": -75.5516
    },
    "43.226.6.82": {
        "country_iso": "PH",
        "country": "Philippines",
        "city": "Cebu City",
        "lat": 10.3099,
        "lon": 123.893
    },
    "195.38.140.4": {
        "country_iso": "DE",
        "country": "Germany",
        "city": null,
        "lat": 51.2993,
        "lon": 9.491
    },
    "91.208.87.80": {
        "country_iso": "NL",
        "country": "Netherlands",
        "city": "Amstelveen",
        "lat": 52.2844,
        "lon": 4.8662
    },
    "51.83.250.206": {
        "country_iso": "PL",
        "country": "Poland",
        "city": "Warsaw",
        "lat": 52.2296,
        "lon": 21.0067
    },
    "193.192.2.132": {
        "country_iso": "GB",
        "country": "United Kingdom",
        "city": null,
        "lat": 51.4964,
        "lon": -0.1224
    },
    "120.138.30.57": {
        "country_iso": "NZ",
        "country": "New Zealand",
        "city": "Auckland",
        "lat": -36.8556,
        "lon": 174.8441
    },
    "103.202.216.11": {
        "country_iso": "JP",
        "country": "Japan",
        "city": null,
        "lat": 35.6897,
        "lon": 139.6895
    },
    "52.66.51.117": {
        "country_iso": "IN",
        "country": "India",
        "city": "Mumbai",
        "lat": 19.0748,
        "lon": 72.8856
    },
    "109.68.162.234": {
        "country_iso": "BE",
        "country": "Belgium",
        "city": "Namur",
        "lat": 50.4689,
        "lon": 4.8622
    },
    "129.13.73.30": {
        "country_iso": "DE",
        "country": "Germany",
        "city": "Karlsruhe",
        "lat": 49.0067,
        "lon": 8.417
    },
    "193.0.0.180": {
        "country_iso": "NL",
        "country": "Netherlands",
        "city": null,
        "lat": 52.3824,
        "lon": 4.8995
    },
    "103.130.69.35": {
        "country_iso": "US",
        "country": "United States",
        "city": "Bend",
        "lat": 44.0597,
        "lon": -121.3157
    },
    "185.95.216.100": {
        "country_iso": "CH",
        "country": "Switzerland",
        "city": null,
        "lat": 47.1449,
        "lon": 8.1551
    },
    "31.172.10.5": {
        "country_iso": "DE",
        "country": "Germany",
        "city": null,
        "lat": 51.2993,
        "lon": 9.491
    },
    "162.253.42.201": {
        "country_iso": "US",
        "country": "United States",
        "city": null,
        "lat": 37.751,
        "lon": -97.822
    },
    "185.28.39.26": {
        "country_iso": "NL",
        "country": "Netherlands",
        "city": null,
        "lat": 52.3824,
        "lon": 4.8995
    },
    "81.169.160.77": {
        "country_iso": "DE",
        "country": "Germany",
        "city": null,
        "lat": 51.2993,
        "lon": 9.491
    },
    "185.24.168.23": {
        "country_iso": "DK",
        "country": "Denmark",
        "city": "Ballerup Municipality",
        "lat": 55.7327,
        "lon": 12.3656
    },
    "37.48.73.130": {
        "country_iso": "NL",
        "country": "Netherlands",
        "city": "Amsterdam",
        "lat": 52.3809,
        "lon": 4.9022
    },
    "103.255.250.213": {
        "country_iso": "SG",
        "country": "Singapore",
        "city": "Singapore",
        "lat": 1.3036,
        "lon": 103.8554
    },
    "185.113.85.7": {
        "country_iso": "NL",
        "country": "Netherlands",
        "city": "Ermelo",
        "lat": 52.2959,
        "lon": 5.6492
    },
    "217.148.160.201": {
        "country_iso": "NL",
        "country": "Netherlands",
        "city": "Vlaardingen",
        "lat": 51.9375,
        "lon": 4.3486
    },
    "185.234.74.26": {
        "country_iso": "GB",
        "country": "United Kingdom",
        "city": "Oakhill",
        "lat": 51.2279,
        "lon": -2.5261
    },
    "192.208.55.11": {
        "country_iso": "US",
        "country": "United States",
        "city": "Duluth",
        "lat": 46.7668,
        "lon": -92.0915
    },
    "118.67.200.190": {
        "country_iso": "KH",
        "country": "Cambodia",
        "city": "Phnom Penh",
        "lat": 11.5583,
        "lon": 104.9121
    },
    "35.182.42.245": {
        "country_iso": "CA",
        "country": "Canada",
        "city": "Montreal",
        "lat": 45.4995,
        "lon": -73.5848
    },
    "84.39.233.185": {
        "country_iso": "IE",
        "country": "Ireland",
        "city": "Cork",
        "lat": 51.8755,
        "lon": -8.493
    },
    "88.151.99.253": {
        "country_iso": "HU",
        "country": "Hungary",
        "city": null,
        "lat": 47.4919,
        "lon": 19.05
    },
    "93.177.80.137": {
        "country_iso": "SE",
        "country": "Sweden",
        "city": null,
        "lat": 59.3247,
        "lon": 18.056
    },
    "203.129.26.145": {
        "country_iso": "AU",
        "country": "Australia",
        "city": "Cowra",
        "lat": -33.8309,
        "lon": 148.6821
    },
    "72.250.243.98": {
        "country_iso": "US",
        "country": "United States",
        "city": "Hendersonville",
        "lat": 35.32,
        "lon": -82.5028
    },
    "77.95.252.48": {
        "country_iso": "NL",
        "country": "Netherlands",
        "city": null,
        "lat": 52.3824,
        "lon": 4.8995
    },
    "185.91.9.17": {
        "country_iso": "US",
        "country": "United States",
        "city": null,
        "lat": 37.751,
        "lon": -97.822
    },
    "199.204.15.129": {
        "country_iso": "US",
        "country": "United States",
        "city": null,
        "lat": 37.751,
        "lon": -97.822
    },
    "141.0.202.201": {
        "country_iso": "FR",
        "country": "France",
        "city": "Allassac",
        "lat": 45.2533,
        "lon": 1.4713
    },
    "185.160.128.147": {
        "country_iso": "BE",
        "country": "Belgium",
        "city": "Antwerp",
        "lat": 51.2192,
        "lon": 4.3917
    },
    "103.25.56.18": {
        "country_iso": "AU",
        "country": "Australia",
        "city": "Adelaide",
        "lat": -34.9281,
        "lon": 138.5999
    },
    "145.58.125.190": {
        "country_iso": "NL",
        "country": "Netherlands",
        "city": "Harderwijk",
        "lat": 52.3398,
        "lon": 5.6299
    },
    "185.206.209.163": {
        "country_iso": "DE",
        "country": "Germany",
        "city": "Frankfurt am Main",
        "lat": 50.1038,
        "lon": 8.6874
    },
    "37.49.234.137": {
        "country_iso": "FR",
        "country": "France",
        "city": "Paris",
        "lat": 48.8323,
        "lon": 2.4075
    },
    "64.40.105.244": {
        "country_iso": "CA",
        "country": "Canada",
        "city": null,
        "lat": 43.6319,
        "lon": -79.3716
    },
    "45.63.14.202": {
        "country_iso": "US",
        "country": "United States",
        "city": "Piscataway",
        "lat": 40.5511,
        "lon": -74.4606
    },
    "185.17.144.154": {
        "country_iso": "DE",
        "country": "Germany",
        "city": null,
        "lat": 51.2993,
        "lon": 9.491
    },
    "80.82.242.37": {
        "country_iso": "GB",
        "country": "United Kingdom",
        "city": "Witney",
        "lat": 51.7829,
        "lon": -1.4493
    },
    "185.87.187.104": {
        "country_iso": "NL",
        "country": "Netherlands",
        "city": null,
        "lat": 52.3824,
        "lon": 4.8995
    },
    "188.44.51.106": {
        "country_iso": "RU",
        "country": "Russia",
        "city": "Moscow",
        "lat": 55.7483,
        "lon": 37.6171
    },
    "62.240.228.4": {
        "country_iso": "FR",
        "country": "France",
        "city": "Paris",
        "lat": 48.8323,
        "lon": 2.4075
    },
    "178.248.209.2": {
        "country_iso": "FR",
        "country": "France",
        "city": "Colombes",
        "lat": 48.9138,
        "lon": 2.2569
    },
    "45.11.105.144": {
        "country_iso": "BR",
        "country": "Brazil",
        "city": "S\u00e3o Paulo",
        "lat": -23.5335,
        "lon": -46.6359
    },
    "81.91.160.190": {
        "country_iso": "DE",
        "country": "Germany",
        "city": null,
        "lat": 51.2993,
        "lon": 9.491
    },
    "162.246.158.103": {
        "country_iso": "CA",
        "country": "Canada",
        "city": "Lac La Biche",
        "lat": 54.7764,
        "lon": -111.9709
    },
    "185.176.16.202": {
        "country_iso": "DE",
        "country": "Germany",
        "city": null,
        "lat": 51.2993,
        "lon": 9.491
    },
    "124.157.73.94": {
        "country_iso": "NZ",
        "country": "New Zealand",
        "city": "Auckland",
        "lat": -36.8492,
        "lon": 174.7889
    },
    "5.28.62.9": {
        "country_iso": "GB",
        "country": "United Kingdom",
        "city": "Reading",
        "lat": 51.5104,
        "lon": -1.1947
    },
    "52.79.39.89": {
        "country_iso": "KR",
        "country": "South Korea",
        "city": "Incheon",
        "lat": 37.4585,
        "lon": 126.7015
    },
    "192.99.153.129": {
        "country_iso": "CA",
        "country": "Canada",
        "city": null,
        "lat": 43.6319,
        "lon": -79.3716
    },
    "194.95.236.10": {
        "country_iso": "DE",
        "country": "Germany",
        "city": null,
        "lat": 51.2993,
        "lon": 9.491
    },
    "200.133.192.67": {
        "country_iso": "BR",
        "country": "Brazil",
        "city": "S\u00e3o Paulo",
        "lat": -23.6283,
        "lon": -46.6409
    },
    "80.93.31.245": {
        "country_iso": "IE",
        "country": "Ireland",
        "city": null,
        "lat": 53.3472,
        "lon": -6.2439
    },
    "46.246.31.250": {
        "country_iso": "SE",
        "country": "Sweden",
        "city": null,
        "lat": 59.3247,
        "lon": 18.056
    },
    "185.233.174.12": {
        "country_iso": "NL",
        "country": "Netherlands",
        "city": "Ede",
        "lat": 52.0244,
        "lon": 5.643
    },
    "212.237.176.70": {
        "country_iso": "DK",
        "country": "Denmark",
        "city": "Copenhagen",
        "lat": 55.7056,
        "lon": 12.5683
    },
    "46.235.231.123": {
        "country_iso": "GB",
        "country": "United Kingdom",
        "city": null,
        "lat": 51.4964,
        "lon": -0.1224
    },
    "185.142.180.252": {
        "country_iso": "DE",
        "country": "Germany",
        "city": "Leipzig",
        "lat": 51.3403,
        "lon": 12.3198
    },
    "103.216.223.22": {
        "country_iso": "SG",
        "country": "Singapore",
        "city": "Singapore",
        "lat": 1.3036,
        "lon": 103.8554
    },
    "188.166.37.221": {
        "country_iso": "NL",
        "country": "Netherlands",
        "city": "Amsterdam",
        "lat": 52.352,
        "lon": 4.9392
    },
    "45.146.4.19": {
        "country_iso": "NL",
        "country": "Netherlands",
        "city": null,
        "lat": 52.3824,
        "lon": 4.8995
    },
    "85.94.202.10": {
        "country_iso": "IT",
        "country": "Italy",
        "city": null,
        "lat": 43.1479,
        "lon": 12.1097
    },
    "37.148.176.54": {
        "country_iso": "BE",
        "country": "Belgium",
        "city": "Saint-Leger",
        "lat": 49.6188,
        "lon": 5.6595
    },
    "203.133.248.125": {
        "country_iso": "JP",
        "country": "Japan",
        "city": null,
        "lat": 35.6897,
        "lon": 139.6895
    },
    "103.219.7.241": {
        "country_iso": "AU",
        "country": "Australia",
        "city": null,
        "lat": -33.494,
        "lon": 143.2104
    },
    "31.210.24.41": {
        "country_iso": "GB",
        "country": "United Kingdom",
        "city": "Bristol",
        "lat": 51.3278,
        "lon": -2.538
    },
    "109.247.116.75": {
        "country_iso": "NO",
        "country": "Norway",
        "city": "Egersund",
        "lat": 58.4586,
        "lon": 5.9828
    },
    "195.166.195.252": {
        "country_iso": "GI",
        "country": "Gibraltar",
        "city": "Gibraltar",
        "lat": 36.1334,
        "lon": -5.3497
    },
    "89.236.103.78": {
        "country_iso": "FI",
        "country": "Finland",
        "city": "Jyv\u00e4skyl\u00e4",
        "lat": 62.2406,
        "lon": 25.7467
    },
    "176.74.17.69": {
        "country_iso": "GB",
        "country": "United Kingdom",
        "city": "London",
        "lat": 51.5591,
        "lon": -0.2283
    },
    "83.246.46.45": {
        "country_iso": "DE",
        "country": "Germany",
        "city": null,
        "lat": 51.2993,
        "lon": 9.491
    },
    "185.54.28.226": {
        "country_iso": "NO",
        "country": "Norway",
        "city": "Bergen",
        "lat": 60.3963,
        "lon": 5.3212
    },
    "45.248.77.40": {
        "country_iso": "AU",
        "country": "Australia",
        "city": "Brisbane",
        "lat": -27.4679,
        "lon": 153.0325
    },
    "208.76.54.138": {
        "country_iso": "US",
        "country": "United States",
        "city": null,
        "lat": 37.751,
        "lon": -97.822
    },
    "62.121.13.4": {
        "country_iso": "GB",
        "country": "United Kingdom",
        "city": "Sudbury",
        "lat": 52.0709,
        "lon": 0.758
    },
    "83.96.202.8": {
        "country_iso": "NL",
        "country": "Netherlands",
        "city": "Almelo",
        "lat": 52.369,
        "lon": 6.657
    },
    "185.255.247.14": {
        "country_iso": "FI",
        "country": "Finland",
        "city": null,
        "lat": 60.1717,
        "lon": 24.9349
    },
    "103.160.116.10": {
        "country_iso": "AU",
        "country": "Australia",
        "city": null,
        "lat": -33.494,
        "lon": 143.2104
    },
    "83.96.195.104": {
        "country_iso": "NL",
        "country": "Netherlands",
        "city": "Almelo",
        "lat": 52.369,
        "lon": 6.657
    },
    "67.221.48.38": {
        "country_iso": "CA",
        "country": "Canada",
        "city": "Montreal",
        "lat": 45.4995,
        "lon": -73.5848
    },
    "217.9.226.25": {
        "country_iso": "BG",
        "country": "Bulgaria",
        "city": "Vratsa",
        "lat": 43.2159,
        "lon": 23.5579
    },
    "187.0.196.139": {
        "country_iso": "BR",
        "country": "Brazil",
        "city": null,
        "lat": -22.8305,
        "lon": -43.2192
    },
    "88.81.224.1": {
        "country_iso": "UA",
        "country": "Ukraine",
        "city": "Kyiv",
        "lat": 50.458,
        "lon": 30.5303
    },
    "13.244.55.174": {
        "country_iso": "ZA",
        "country": "South Africa",
        "city": "Cape Town",
        "lat": -34.0486,
        "lon": 18.4811
    },
    "192.33.139.29": {
        "country_iso": "US",
        "country": "United States",
        "city": null,
        "lat": 37.751,
        "lon": -97.822
    },
    "90.155.62.240": {
        "country_iso": "GB",
        "country": "United Kingdom",
        "city": "Birmingham",
        "lat": 52.4867,
        "lon": -1.8989
    },
    "91.90.104.206": {
        "country_iso": "NO",
        "country": "Norway",
        "city": null,
        "lat": 59.9452,
        "lon": 10.7559
    },
    "185.31.77.77": {
        "country_iso": "DK",
        "country": "Denmark",
        "city": null,
        "lat": 55.7123,
        "lon": 12.0564
    },
    "165.22.22.72": {
        "country_iso": "DE",
        "country": "Germany",
        "city": "Frankfurt am Main",
        "lat": 50.1188,
        "lon": 8.6843
    },
    "5.39.171.10": {
        "country_iso": "NL",
        "country": "Netherlands",
        "city": "Kerk-Avezaath",
        "lat": 51.9014,
        "lon": 5.3788
    },
    "37.46.80.118": {
        "country_iso": "CZ",
        "country": "Czechia",
        "city": null,
        "lat": 50.0853,
        "lon": 14.411
    },
    "102.130.49.134": {
        "country_iso": "ZA",
        "country": "South Africa",
        "city": "Johannesburg",
        "lat": -26.3811,
        "lon": 27.8376
    },
    "185.90.125.134": {
        "country_iso": "PS",
        "country": "Palestine",
        "city": null,
        "lat": 31.9216,
        "lon": 35.2033
    },
    "193.160.39.24": {
        "country_iso": "DE",
        "country": "Germany",
        "city": null,
        "lat": 51.2993,
        "lon": 9.491
    },
    "23.174.129.25": {
        "country_iso": "US",
        "country": "United States",
        "city": null,
        "lat": 37.751,
        "lon": -97.822
    },
    "92.240.232.158": {
        "country_iso": "SK",
        "country": "Slovakia",
        "city": null,
        "lat": 48.6667,
        "lon": 19.5
    },
    "94.186.187.3": {
        "country_iso": "DE",
        "country": "Germany",
        "city": "Kirchheim unter Teck",
        "lat": 48.6512,
        "lon": 9.4545
    },
    "206.126.112.10": {
        "country_iso": "CA",
        "country": "Canada",
        "city": null,
        "lat": 43.6319,
        "lon": -79.3716
    },
    "196.10.53.5": {
        "country_iso": "ZA",
        "country": "South Africa",
        "city": null,
        "lat": -29,
        "lon": 24
    },
    "124.150.139.206": {
        "country_iso": "AU",
        "country": "Australia",
        "city": "Perth",
        "lat": -31.9474,
        "lon": 115.8648
    },
    "77.244.245.74": {
        "country_iso": "AT",
        "country": "Austria",
        "city": "Vienna",
        "lat": 48.1535,
        "lon": 16.3855
    },
    "185.219.12.103": {
        "country_iso": "FR",
        "country": "France",
        "city": "Paris",
        "lat": 48.8323,
        "lon": 2.4075
    },
    "87.238.49.250": {
        "country_iso": "NO",
        "country": "Norway",
        "city": "Oslo",
        "lat": 59.8636,
        "lon": 10.7961
    },
    "170.39.230.105": {
        "country_iso": "CA",
        "country": "Canada",
        "city": "Toronto",
        "lat": 43.6547,
        "lon": -79.3623
    },
    "193.19.209.153": {
        "country_iso": "FR",
        "country": "France",
        "city": null,
        "lat": 48.8582,
        "lon": 2.3387
    },
    "45.154.166.91": {
        "country_iso": "NL",
        "country": "Netherlands",
        "city": null,
        "lat": 52.3824,
        "lon": 4.8995
    },
    "96.127.255.91": {
        "country_iso": "CA",
        "country": "Canada",
        "city": "Montreal",
        "lat": 45.5178,
        "lon": -73.6046
    },
    "203.123.48.14": {
        "country_iso": "SG",
        "country": "Singapore",
        "city": null,
        "lat": 1.3673,
        "lon": 103.8014
    },
    "62.102.235.194": {
        "country_iso": "FR",
        "country": "France",
        "city": "Montpellier",
        "lat": 43.6107,
        "lon": 3.8809
    },
    "163.237.247.17": {
        "country_iso": "US",
        "country": "United States",
        "city": null,
        "lat": 37.751,
        "lon": -97.822
    },
    "217.28.97.8": {
        "country_iso": "DE",
        "country": "Germany",
        "city": "Kehl",
        "lat": 48.5709,
        "lon": 7.8099
    },
    "199.10.66.229": {
        "country_iso": "US",
        "country": "United States",
        "city": null,
        "lat": 37.751,
        "lon": -97.822
    },
    "213.183.69.198": {
        "country_iso": "DE",
        "country": "Germany",
        "city": "Ludwigshafen am Rhein",
        "lat": 49.4823,
        "lon": 8.4397
    },
    "86.39.65.11": {
        "country_iso": "BE",
        "country": "Belgium",
        "city": null,
        "lat": 50.8509,
        "lon": 4.3447
    },
    "212.58.0.250": {
        "country_iso": "TR",
        "country": "Turkey",
        "city": null,
        "lat": 41.0218,
        "lon": 28.9669
    },
    "147.28.0.89": {
        "country_iso": "EE",
        "country": "Estonia",
        "city": null,
        "lat": 59,
        "lon": 26
    },
    "212.114.113.69": {
        "country_iso": "NL",
        "country": "Netherlands",
        "city": "Utrecht",
        "lat": 52.0749,
        "lon": 5.1202
    },
    "62.138.161.20": {
        "country_iso": "DE",
        "country": "Germany",
        "city": "Cologne",
        "lat": 50.9298,
        "lon": 6.9489
    },
    "217.119.42.194": {
        "country_iso": "FI",
        "country": "Finland",
        "city": "Helsinki",
        "lat": 60.1797,
        "lon": 24.9344
    },
    "185.37.148.205": {
        "country_iso": "IL",
        "country": "Israel",
        "city": "Tel Aviv",
        "lat": 32.0803,
        "lon": 34.7805
    },
    "185.107.93.26": {
        "country_iso": "NL",
        "country": "Netherlands",
        "city": null,
        "lat": 52.3824,
        "lon": 4.8995
    },
    "217.119.224.247": {
        "country_iso": "NL",
        "country": "Netherlands",
        "city": "Oldenzaal",
        "lat": 52.3145,
        "lon": 6.9414
    },
    "93.187.11.10": {
        "country_iso": "NL",
        "country": "Netherlands",
        "city": null,
        "lat": 52.3824,
        "lon": 4.8995
    },
    "91.90.46.127": {
        "country_iso": "NO",
        "country": "Norway",
        "city": null,
        "lat": 59.9452,
        "lon": 10.7559
    },
    "212.61.158.6": {
        "country_iso": "NL",
        "country": "Netherlands",
        "city": "Eindhoven",
        "lat": 51.4509,
        "lon": 5.4758
    },
    "192.160.102.139": {
        "country_iso": "CA",
        "country": "Canada",
        "city": null,
        "lat": 43.6319,
        "lon": -79.3716
    },
    "109.236.159.249": {
        "country_iso": "DE",
        "country": "Germany",
        "city": null,
        "lat": 51.2993,
        "lon": 9.491
    },
    "94.199.91.190": {
        "country_iso": "DE",
        "country": "Germany",
        "city": "Munich",
        "lat": 48.1336,
        "lon": 11.5658
    },
    "103.25.58.11": {
        "country_iso": "AU",
        "country": "Australia",
        "city": "Sydney",
        "lat": -33.8715,
        "lon": 151.2006
    },
    "141.98.136.68": {
        "country_iso": "DE",
        "country": "Germany",
        "city": "Frankfurt am Main",
        "lat": 50.1188,
        "lon": 8.6843
    },
    "82.94.249.162": {
        "country_iso": "NL",
        "country": "Netherlands",
        "city": "Leiden",
        "lat": 52.151,
        "lon": 4.4508
    },
    "5.2.79.223": {
        "country_iso": "NL",
        "country": "Netherlands",
        "city": null,
        "lat": 52.3824,
        "lon": 4.8995
    },
    "46.183.250.9": {
        "country_iso": "BE",
        "country": "Belgium",
        "city": "Poppel",
        "lat": 51.4475,
        "lon": 5.0491
    },
    "46.227.58.30": {
        "country_iso": "GR",
        "country": "Greece",
        "city": null,
        "lat": 37.9667,
        "lon": 23.7167
    },
    "84.241.137.18": {
        "country_iso": "NL",
        "country": "Netherlands",
        "city": "Hengelo",
        "lat": 52.2685,
        "lon": 6.7894
    },
    "89.105.199.74": {
        "country_iso": "NL",
        "country": "Netherlands",
        "city": null,
        "lat": 52.3824,
        "lon": 4.8995
    },
    "103.115.210.31": {
        "country_iso": "AU",
        "country": "Australia",
        "city": "Adelaide",
        "lat": -34.9281,
        "lon": 138.5999
    },
    "14.1.44.230": {
        "country_iso": "NZ",
        "country": "New Zealand",
        "city": "Auckland",
        "lat": -36.8506,
        "lon": 174.7679
    },
    "5.10.145.254": {
        "country_iso": "GB",
        "country": "United Kingdom",
        "city": "Cheltenham",
        "lat": 51.8424,
        "lon": -2.0543
    },
    "185.82.214.77": {
        "country_iso": "CZ",
        "country": "Czechia",
        "city": null,
        "lat": 50.0853,
        "lon": 14.411
    },
    "15.236.111.211": {
        "country_iso": "FR",
        "country": "France",
        "city": "Paris",
        "lat": 48.8323,
        "lon": 2.4075
    },
    "89.188.27.98": {
        "country_iso": "NL",
        "country": "Netherlands",
        "city": "Groningen",
        "lat": 53.211,
        "lon": 6.6008
    },
    "64.73.80.140": {
        "country_iso": "US",
        "country": "United States",
        "city": null,
        "lat": 37.751,
        "lon": -97.822
    },
    "212.113.66.22": {
        "country_iso": "BE",
        "country": "Belgium",
        "city": null,
        "lat": 50.8509,
        "lon": 4.3447
    },
    "208.70.247.50": {
        "country_iso": "CA",
        "country": "Canada",
        "city": "Vancouver",
        "lat": 49.2462,
        "lon": -123.108
    },
    "78.108.46.118": {
        "country_iso": "GR",
        "country": "Greece",
        "city": "Thessaloniki",
        "lat": 40.6381,
        "lon": 22.9455
    },
    "185.111.204.122": {
        "country_iso": "BE",
        "country": "Belgium",
        "city": "Kapellen",
        "lat": 51.3148,
        "lon": 4.4413
    },
    "217.198.20.135": {
        "country_iso": "NL",
        "country": "Netherlands",
        "city": null,
        "lat": 52.3824,
        "lon": 4.8995
    },
    "62.133.33.44": {
        "country_iso": "NL",
        "country": "Netherlands",
        "city": "Amsterdam",
        "lat": 52.3759,
        "lon": 4.8975
    },
    "139.59.170.31": {
        "country_iso": "GB",
        "country": "United Kingdom",
        "city": "London",
        "lat": 51.5368,
        "lon": -0.6718
    },
    "206.196.5.164": {
        "country_iso": "US",
        "country": "United States",
        "city": "Louisville",
        "lat": 38.22,
        "lon": -85.6942
    },
    "82.199.134.114": {
        "country_iso": "DE",
        "country": "Germany",
        "city": null,
        "lat": 51.2993,
        "lon": 9.491
    },
    "184.175.213.14": {
        "country_iso": "US",
        "country": "United States",
        "city": "Jacksonville",
        "lat": 30.3298,
        "lon": -81.6492
    },
    "198.148.92.142": {
        "country_iso": "US",
        "country": "United States",
        "city": "Denver",
        "lat": 39.7501,
        "lon": -104.9957
    },
    "185.73.44.67": {
        "country_iso": "GB",
        "country": "United Kingdom",
        "city": null,
        "lat": 51.4964,
        "lon": -0.1224
    },
    "185.231.100.55": {
        "country_iso": "SE",
        "country": "Sweden",
        "city": null,
        "lat": 59.3247,
        "lon": 18.056
    },
    "213.83.46.196": {
        "country_iso": "DE",
        "country": "Germany",
        "city": null,
        "lat": 51.2993,
        "lon": 9.491
    },
    "109.75.188.108": {
        "country_iso": "DE",
        "country": "Germany",
        "city": null,
        "lat": 51.2993,
        "lon": 9.491
    },
    "159.127.40.236": {
        "country_iso": "US",
        "country": "United States",
        "city": null,
        "lat": 37.751,
        "lon": -97.822
    },
    "149.210.130.136": {
        "country_iso": "NL",
        "country": "Netherlands",
        "city": "Santpoort-Noord",
        "lat": 52.4326,
        "lon": 4.6355
    },
    "81.94.161.36": {
        "country_iso": "SE",
        "country": "Sweden",
        "city": "Stockholm",
        "lat": 59.3287,
        "lon": 18.0717
    },
    "194.169.225.130": {
        "country_iso": "SE",
        "country": "Sweden",
        "city": null,
        "lat": 59.3247,
        "lon": 18.056
    },
    "23.157.160.133": {
        "country_iso": "US",
        "country": "United States",
        "city": "Brooklyn",
        "lat": 40.7035,
        "lon": -73.9235
    },
    "82.220.3.51": {
        "country_iso": "CH",
        "country": "Switzerland",
        "city": "Courrendlin",
        "lat": 47.342,
        "lon": 7.3725
    },
    "79.143.213.22": {
        "country_iso": "NL",
        "country": "Netherlands",
        "city": "Oosterhout",
        "lat": 51.6184,
        "lon": 4.8745
    },
    "193.95.190.213": {
        "country_iso": "IE",
        "country": "Ireland",
        "city": null,
        "lat": 53.3472,
        "lon": -6.2439
    },
    "195.191.197.71": {
        "country_iso": "DE",
        "country": "Germany",
        "city": null,
        "lat": 51.2993,
        "lon": 9.491
    },
    "46.30.209.1": {
        "country_iso": "DK",
        "country": "Denmark",
        "city": null,
        "lat": 55.7123,
        "lon": 12.0564
    },
    "68.64.40.68": {
        "country_iso": "US",
        "country": "United States",
        "city": null,
        "lat": 37.751,
        "lon": -97.822
    },
    "192.0.46.158": {
        "country_iso": "US",
        "country": "United States",
        "city": null,
        "lat": 37.751,
        "lon": -97.822
    },
    "185.250.9.236": {
        "country_iso": "GB",
        "country": "United Kingdom",
        "city": null,
        "lat": 51.4964,
        "lon": -0.1224
    },
    "52.210.89.115": {
        "country_iso": "IE",
        "country": "Ireland",
        "city": "Dublin",
        "lat": 53.3379,
        "lon": -6.2591
    },
    "46.17.60.106": {
        "country_iso": "GB",
        "country": "United Kingdom",
        "city": "Sawbridgeworth",
        "lat": 51.8178,
        "lon": 0.118
    },
    "104.236.41.143": {
        "country_iso": "US",
        "country": "United States",
        "city": "Clifton",
        "lat": 40.8364,
        "lon": -74.1403
    },
    "185.173.128.72": {
        "country_iso": "CH",
        "country": "Switzerland",
        "city": null,
        "lat": 47.1449,
        "lon": 8.1551
    },
    "206.123.203.163": {
        "country_iso": "US",
        "country": "United States",
        "city": "Montrose",
        "lat": 38.3606,
        "lon": -107.9334
    },
    "23.174.128.21": {
        "country_iso": "US",
        "country": "United States",
        "city": null,
        "lat": 37.751,
        "lon": -97.822
    },
    "190.210.175.57": {
        "country_iso": "AR",
        "country": "Argentina",
        "city": "Buenos Aires",
        "lat": -34.6049,
        "lon": -58.4455
    },
    "128.114.126.2": {
        "country_iso": "US",
        "country": "United States",
        "city": "Los Angeles",
        "lat": 33.9883,
        "lon": -118.3294
    },
    "35.158.153.153": {
        "country_iso": "DE",
        "country": "Germany",
        "city": "Frankfurt am Main",
        "lat": 50.1188,
        "lon": 8.6843
    },
    "200.237.196.2": {
        "country_iso": "BR",
        "country": "Brazil",
        "city": null,
        "lat": -22.8305,
        "lon": -43.2192
    },
    "92.119.28.43": {
        "country_iso": "NL",
        "country": "Netherlands",
        "city": null,
        "lat": 52.3824,
        "lon": 4.8995
    },
    "185.199.219.126": {
        "country_iso": "DE",
        "country": "Germany",
        "city": null,
        "lat": 51.2993,
        "lon": 9.491
    },
    "95.128.168.121": {
        "country_iso": "RO",
        "country": "Romania",
        "city": null,
        "lat": 45.9968,
        "lon": 24.997
    },
    "185.104.28.190": {
        "country_iso": "NL",
        "country": "Netherlands",
        "city": null,
        "lat": 52.3824,
        "lon": 4.8995
    },
    "103.152.35.127": {
        "country_iso": "HK",
        "country": "Hong Kong",
        "city": "Central",
        "lat": 22.2908,
        "lon": 114.1501
    },
    "186.0.205.106": {
        "country_iso": "AR",
        "country": "Argentina",
        "city": "Buenos Aires",
        "lat": -34.6142,
        "lon": -58.3811
    },
    "13.210.46.145": {
        "country_iso": "AU",
        "country": "Australia",
        "city": "Sydney",
        "lat": -33.8715,
        "lon": 151.2006
    },
    "91.184.33.38": {
        "country_iso": "DE",
        "country": "Germany",
        "city": "Neuss",
        "lat": 51.1529,
        "lon": 6.7107
    },
    "213.95.10.76": {
        "country_iso": "DE",
        "country": "Germany",
        "city": "F\u00fcrth",
        "lat": 49.491,
        "lon": 10.9588
    },
    "185.23.214.242": {
        "country_iso": "NL",
        "country": "Netherlands",
        "city": null,
        "lat": 52.3824,
        "lon": 4.8995
    },
    "192.0.33.158": {
        "country_iso": "US",
        "country": "United States",
        "city": null,
        "lat": 37.751,
        "lon": -97.822
    },
    "194.62.97.148": {
        "country_iso": "ES",
        "country": "Spain",
        "city": null,
        "lat": 40.4172,
        "lon": -3.684
    },
    "82.219.48.9": {
        "country_iso": "GB",
        "country": "United Kingdom",
        "city": "Kingswinford",
        "lat": 52.5015,
        "lon": -2.1623
    },
    "110.173.226.9": {
        "country_iso": "AU",
        "country": "Australia",
        "city": "Perth",
        "lat": -31.9474,
        "lon": 115.8648
    },
    "192.241.208.19": {
        "country_iso": "US",
        "country": "United States",
        "city": "San Francisco",
        "lat": 37.7308,
        "lon": -122.3838
    },
    "208.74.28.6": {
        "country_iso": "US",
        "country": "United States",
        "city": null,
        "lat": 37.751,
        "lon": -97.822
    },
    "164.215.32.85": {
        "country_iso": "FI",
        "country": "Finland",
        "city": null,
        "lat": 60.1717,
        "lon": 24.9349
    },
    "95.214.17.12": {
        "country_iso": "NL",
        "country": "Netherlands",
        "city": null,
        "lat": 52.3824,
        "lon": 4.8995
    },
    "185.95.29.75": {
        "country_iso": "US",
        "country": "United States",
        "city": "Miami",
        "lat": 25.7806,
        "lon": -80.1826
    },
    "157.175.30.70": {
        "country_iso": "BH",
        "country": "Bahrain",
        "city": null,
        "lat": 26.0333,
        "lon": 50.55
    },
    "213.225.160.175": {
        "country_iso": "FR",
        "country": "France",
        "city": null,
        "lat": 48.8582,
        "lon": 2.3387
    },
    "93.93.129.145": {
        "country_iso": "GB",
        "country": "United Kingdom",
        "city": null,
        "lat": 51.4964,
        "lon": -0.1224
    },
    "23.188.16.42": {
        "country_iso": "US",
        "country": "United States",
        "city": null,
        "lat": 37.751,
        "lon": -97.822
    },
    "80.67.163.250": {
        "country_iso": "FR",
        "country": "France",
        "city": null,
        "lat": 48.8582,
        "lon": 2.3387
    },
    "213.230.217.125": {
        "country_iso": "GB",
        "country": "United Kingdom",
        "city": "Twickenham",
        "lat": 51.443,
        "lon": -0.3295
    },
    "83.164.133.228": {
        "country_iso": "AT",
        "country": "Austria",
        "city": "Ried in der Riedmark",
        "lat": 48.2687,
        "lon": 14.5272
    },
    "217.24.48.97": {
        "country_iso": "DE",
        "country": "Germany",
        "city": "Rodental",
        "lat": 50.2982,
        "lon": 11.0466
    },
    "217.77.130.230": {
        "country_iso": "NL",
        "country": "Netherlands",
        "city": "Rhenen",
        "lat": 51.9674,
        "lon": 5.5753
    },
    "213.184.86.100": {
        "country_iso": "DK",
        "country": "Denmark",
        "city": "Ballerup Municipality",
        "lat": 55.7327,
        "lon": 12.3656
    },
    "108.60.128.14": {
        "country_iso": "US",
        "country": "United States",
        "city": "Newark",
        "lat": 40.7337,
        "lon": -74.1939
    },
    "172.103.36.110": {
        "country_iso": "US",
        "country": "United States",
        "city": "Montrose",
        "lat": 38.4687,
        "lon": -107.88
    },
    "154.11.253.242": {
        "country_iso": "CA",
        "country": "Canada",
        "city": null,
        "lat": 43.6319,
        "lon": -79.3716
    },
    "85.204.124.159": {
        "country_iso": "RO",
        "country": "Romania",
        "city": "Bucharest",
        "lat": 44.4117,
        "lon": 26.0422
    },
    "83.233.23.119": {
        "country_iso": "SE",
        "country": "Sweden",
        "city": "Upplands Vasby",
        "lat": 59.5174,
        "lon": 17.9217
    },
    "193.166.255.250": {
        "country_iso": "FI",
        "country": "Finland",
        "city": "Helsinki",
        "lat": 60.1797,
        "lon": 24.9344
    },
    "217.68.244.129": {
        "country_iso": "GB",
        "country": "United Kingdom",
        "city": "Towersey",
        "lat": 51.7354,
        "lon": -0.9837
    },
    "94.237.64.45": {
        "country_iso": "SG",
        "country": "Singapore",
        "city": "Singapore",
        "lat": 1.3036,
        "lon": 103.8554
    },
    "193.182.61.51": {
        "country_iso": "SE",
        "country": "Sweden",
        "city": null,
        "lat": 59.3247,
        "lon": 18.056
    },
    "62.133.200.1": {
        "country_iso": "NL",
        "country": "Netherlands",
        "city": "Maasbree",
        "lat": 51.3593,
        "lon": 6.049
    },
    "51.79.29.232": {
        "country_iso": "CA",
        "country": "Canada",
        "city": null,
        "lat": 43.6319,
        "lon": -79.3716
    },
    "103.12.179.13": {
        "country_iso": "BD",
        "country": "Bangladesh",
        "city": "Dhaka",
        "lat": 23.7908,
        "lon": 90.4109
    },
    "213.197.240.52": {
        "country_iso": "NL",
        "country": "Netherlands",
        "city": null,
        "lat": 52.3824,
        "lon": 4.8995
    },
    "109.123.197.83": {
        "country_iso": "CZ",
        "country": "Czechia",
        "city": null,
        "lat": 50.0853,
        "lon": 14.411
    },
    "87.253.248.13": {
        "country_iso": "DE",
        "country": "Germany",
        "city": "Owingen",
        "lat": 47.8136,
        "lon": 9.1705
    },
    "103.31.84.12": {
        "country_iso": "MV",
        "country": "Maldives",
        "city": "Mal\u00e9",
        "lat": 4.1772,
        "lon": 73.5107
    },
    "185.59.204.164": {
        "country_iso": "GB",
        "country": "United Kingdom",
        "city": "Shrewsbury",
        "lat": 52.7263,
        "lon": -3.0516
    },
    "128.199.216.83": {
        "country_iso": "SG",
        "country": "Singapore",
        "city": "Singapore",
        "lat": 1.3078,
        "lon": 103.6818
    },
    "83.166.136.173": {
        "country_iso": "CH",
        "country": "Switzerland",
        "city": "Schwarzenburg",
        "lat": 46.8094,
        "lon": 7.3444
    },
    "217.114.76.126": {
        "country_iso": "DE",
        "country": "Germany",
        "city": "Hamburg",
        "lat": 53.5466,
        "lon": 10.021
    },
    "185.66.251.224": {
        "country_iso": "NL",
        "country": "Netherlands",
        "city": null,
        "lat": 52.3824,
        "lon": 4.8995
    },
    "209.33.215.106": {
        "country_iso": "US",
        "country": "United States",
        "city": "Cedar City",
        "lat": 37.6771,
        "lon": -113.062
    },
    "189.89.131.40": {
        "country_iso": "BR",
        "country": "Brazil",
        "city": "Salvador",
        "lat": -12.8671,
        "lon": -38.4807
    },
    "85.118.134.2": {
        "country_iso": "CZ",
        "country": "Czechia",
        "city": null,
        "lat": 50.0853,
        "lon": 14.411
    },
    "18.163.52.229": {
        "country_iso": "HK",
        "country": "Hong Kong",
        "city": null,
        "lat": 22.2578,
        "lon": 114.1657
    },
    "165.140.142.104": {
        "country_iso": "US",
        "country": "United States",
        "city": "North Kansas City",
        "lat": 39.1247,
        "lon": -94.559
    },
    "67.212.77.61": {
        "country_iso": "CA",
        "country": "Canada",
        "city": "Saint-Jean-sur-Richelieu",
        "lat": 45.2832,
        "lon": -73.2792
    },
    "175.45.73.66": {
        "country_iso": "AU",
        "country": "Australia",
        "city": "Sydney",
        "lat": -33.8715,
        "lon": 151.2006
    },
    "185.42.136.5": {
        "country_iso": "SE",
        "country": "Sweden",
        "city": null,
        "lat": 59.3247,
        "lon": 18.056
    },
    "37.186.150.70": {
        "country_iso": "IT",
        "country": "Italy",
        "city": "Pozza di Fassa",
        "lat": 46.4289,
        "lon": 11.6779
    },
    "200.238.130.54": {
        "country_iso": "BR",
        "country": "Brazil",
        "city": null,
        "lat": -22.8305,
        "lon": -43.2192
    },
    "170.39.225.182": {
        "country_iso": "US",
        "country": "United States",
        "city": "North Kansas City",
        "lat": 39.1247,
        "lon": -94.559
    },
    "209.151.145.12": {
        "country_iso": "US",
        "country": "United States",
        "city": null,
        "lat": 37.751,
        "lon": -97.822
    },
    "107.178.59.238": {
        "country_iso": "US",
        "country": "United States",
        "city": "New York",
        "lat": 40.7279,
        "lon": -73.9966
    },
    "144.48.37.207": {
        "country_iso": "AU",
        "country": "Australia",
        "city": "Melbourne",
        "lat": -37.8372,
        "lon": 144.9354
    },
    "92.118.28.13": {
        "country_iso": "GB",
        "country": "United Kingdom",
        "city": "London",
        "lat": 51.5474,
        "lon": -0.0098
    },
    "139.99.223.64": {
        "country_iso": "AU",
        "country": "Australia",
        "city": "Sydney",
        "lat": -33.8715,
        "lon": 151.2006
    },
    "37.49.155.108": {
        "country_iso": "DE",
        "country": "Germany",
        "city": "Berlin",
        "lat": 52.4941,
        "lon": 13.4272
    },
    "103.101.0.68": {
        "country_iso": "HK",
        "country": "Hong Kong",
        "city": "Kwai Chung",
        "lat": 22.3539,
        "lon": 114.1342
    },
    "62.176.246.168": {
        "country_iso": "DE",
        "country": "Germany",
        "city": "Wolfsburg",
        "lat": 52.4295,
        "lon": 10.7793
    },
    "180.150.59.171": {
        "country_iso": "AU",
        "country": "Australia",
        "city": "Ballarat",
        "lat": -37.5691,
        "lon": 143.8561
    },
    "31.209.92.227": {
        "country_iso": "DE",
        "country": "Germany",
        "city": "Bremen",
        "lat": 53.1063,
        "lon": 8.7755
    },
    "212.97.216.247": {
        "country_iso": "DK",
        "country": "Denmark",
        "city": "Copenhagen",
        "lat": 55.7056,
        "lon": 12.5683
    },
    "178.237.105.39": {
        "country_iso": "FR",
        "country": "France",
        "city": "Grenoble",
        "lat": 45.1766,
        "lon": 5.7205
    },
    "185.29.203.222": {
        "country_iso": "NL",
        "country": "Netherlands",
        "city": "Werkhoven",
        "lat": 52.0228,
        "lon": 5.25
    },
    "23.152.192.246": {
        "country_iso": "US",
        "country": "United States",
        "city": null,
        "lat": 37.751,
        "lon": -97.822
    },
    "167.160.44.65": {
        "country_iso": "US",
        "country": "United States",
        "city": null,
        "lat": 37.751,
        "lon": -97.822
    },
    "82.195.72.4": {
        "country_iso": "DE",
        "country": "Germany",
        "city": "Geisenheim",
        "lat": 49.9796,
        "lon": 7.974
    },
    "91.194.60.185": {
        "country_iso": "FR",
        "country": "France",
        "city": null,
        "lat": 48.8582,
        "lon": 2.3387
    },
    "180.149.230.19": {
        "country_iso": "JP",
        "country": "Japan",
        "city": "Tokyo",
        "lat": 35.6893,
        "lon": 139.6899
    },
    "91.212.242.244": {
        "country_iso": "PL",
        "country": "Poland",
        "city": "Gdynia",
        "lat": 54.527,
        "lon": 18.5388
    },
    "217.151.198.151": {
        "country_iso": "SE",
        "country": "Sweden",
        "city": "V\u00e4ster\u00e5s",
        "lat": 59.6146,
        "lon": 16.5528
    },
    "64.71.160.154": {
        "country_iso": "US",
        "country": "United States",
        "city": "Cresco",
        "lat": 43.3674,
        "lon": -92.1166
    },
    "84.53.65.133": {
        "country_iso": "NL",
        "country": "Netherlands",
        "city": "Almere Stad",
        "lat": 52.3813,
        "lon": 5.2094
    },
    "185.231.57.70": {
        "country_iso": "NL",
        "country": "Netherlands",
        "city": null,
        "lat": 52.3824,
        "lon": 4.8995
    },
    "120.29.249.252": {
        "country_iso": "AU",
        "country": "Australia",
        "city": null,
        "lat": -33.494,
        "lon": 143.2104
    },
    "95.142.96.108": {
        "country_iso": "NL",
        "country": "Netherlands",
        "city": "Schiphol",
        "lat": 52.2973,
        "lon": 4.7946
    },
    "140.192.218.142": {
        "country_iso": "US",
        "country": "United States",
        "city": "Chicago",
        "lat": 41.8777,
        "lon": -87.6376
    },
    "109.248.43.102": {
        "country_iso": "CZ",
        "country": "Czechia",
        "city": "Prague",
        "lat": 50.0883,
        "lon": 14.4124
    },
    "195.176.255.11": {
        "country_iso": "CH",
        "country": "Switzerland",
        "city": "Geneva",
        "lat": 46.1922,
        "lon": 6.1589
    },
    "200.1.120.28": {
        "country_iso": "CL",
        "country": "Chile",
        "city": null,
        "lat": -33.439,
        "lon": -70.6432
    },
    "65.254.96.18": {
        "country_iso": "US",
        "country": "United States",
        "city": "St Louis",
        "lat": 38.6664,
        "lon": -90.322
    },
    "62.220.128.73": {
        "country_iso": "CH",
        "country": "Switzerland",
        "city": "Lausanne",
        "lat": 46.488,
        "lon": 6.607
    },
    "46.183.104.122": {
        "country_iso": "GB",
        "country": "United Kingdom",
        "city": "London",
        "lat": 51.5164,
        "lon": -0.093
    },
    "72.34.255.61": {
        "country_iso": "US",
        "country": "United States",
        "city": "Los Angeles",
        "lat": 34.0732,
        "lon": -118.3294
    },
    "94.237.24.27": {
        "country_iso": "FI",
        "country": "Finland",
        "city": null,
        "lat": 60.1717,
        "lon": 24.9349
    },
    "109.71.96.106": {
        "country_iso": "CH",
        "country": "Switzerland",
        "city": "Basel",
        "lat": 47.5766,
        "lon": 7.5849
    },
    "31.3.104.43": {
        "country_iso": "NL",
        "country": "Netherlands",
        "city": "Elst",
        "lat": 51.9127,
        "lon": 5.8393
    },
    "185.20.12.198": {
        "country_iso": "SE",
        "country": "Sweden",
        "city": null,
        "lat": 59.3247,
        "lon": 18.056
    },
    "77.66.16.178": {
        "country_iso": "DK",
        "country": "Denmark",
        "city": "Frederiksberg",
        "lat": 55.6808,
        "lon": 12.542
    },
    "195.234.45.126": {
        "country_iso": "BE",
        "country": "Belgium",
        "city": null,
        "lat": 50.8509,
        "lon": 4.3447
    },
    "199.254.238.43": {
        "country_iso": "US",
        "country": "United States",
        "city": null,
        "lat": 37.751,
        "lon": -97.822
    },
    "109.205.75.161": {
        "country_iso": "CZ",
        "country": "Czechia",
        "city": null,
        "lat": 50.0853,
        "lon": 14.411
    },
    "89.189.198.14": {
        "country_iso": "SE",
        "country": "Sweden",
        "city": null,
        "lat": 59.3247,
        "lon": 18.056
    },
    "103.113.56.151": {
        "country_iso": "JP",
        "country": "Japan",
        "city": null,
        "lat": 35.6897,
        "lon": 139.6895
    },
    "194.150.191.55": {
        "country_iso": "DE",
        "country": "Germany",
        "city": "Nuremberg",
        "lat": 49.415,
        "lon": 11.034
    },
    "217.147.213.237": {
        "country_iso": "CH",
        "country": "Switzerland",
        "city": "Zurich",
        "lat": 47.3604,
        "lon": 8.5388
    },
    "185.89.162.230": {
        "country_iso": "AT",
        "country": "Austria",
        "city": "Perg",
        "lat": 48.2504,
        "lon": 14.6372
    },
    "77.95.64.150": {
        "country_iso": "FR",
        "country": "France",
        "city": "Lyon",
        "lat": 45.748,
        "lon": 4.85
    },
    "85.90.94.148": {
        "country_iso": "NL",
        "country": "Netherlands",
        "city": "Almere Stad",
        "lat": 52.4076,
        "lon": 5.2923
    },
    "51.89.117.83": {
        "country_iso": "GB",
        "country": "United Kingdom",
        "city": "London",
        "lat": 51.5164,
        "lon": -0.093
    },
    "45.136.139.248": {
        "country_iso": "CH",
        "country": "Switzerland",
        "city": "Zurich",
        "lat": 47.3682,
        "lon": 8.5671
    },
    "217.114.111.202": {
        "country_iso": "NL",
        "country": "Netherlands",
        "city": "Haaksbergen",
        "lat": 52.1666,
        "lon": 6.7281
    },
    "185.16.196.68": {
        "country_iso": "DE",
        "country": "Germany",
        "city": null,
        "lat": 51.2993,
        "lon": 9.491
    },
    "83.96.201.177": {
        "country_iso": "NL",
        "country": "Netherlands",
        "city": "Almelo",
        "lat": 52.369,
        "lon": 6.657
    },
    "128.139.197.81": {
        "country_iso": "IL",
        "country": "Israel",
        "city": null,
        "lat": 31.5,
        "lon": 34.75
    },
    "82.141.39.25": {
        "country_iso": "DE",
        "country": "Germany",
        "city": "Neustadt an der Aisch",
        "lat": 49.5802,
        "lon": 10.6051
    },
    "94.231.110.110": {
        "country_iso": "DK",
        "country": "Denmark",
        "city": "Skanderborg",
        "lat": 56.0393,
        "lon": 9.9313
    },
    "185.233.100.38": {
        "country_iso": "FR",
        "country": "France",
        "city": null,
        "lat": 48.8582,
        "lon": 2.3387
    },
    "193.150.22.68": {
        "country_iso": "NO",
        "country": "Norway",
        "city": null,
        "lat": 59.9452,
        "lon": 10.7559
    },
    "5.226.144.239": {
        "country_iso": "CH",
        "country": "Switzerland",
        "city": "Winterthur",
        "lat": 47.507,
        "lon": 8.7216
    },
    "185.161.127.5": {
        "country_iso": "NO",
        "country": "Norway",
        "city": "Jessheim",
        "lat": 60.1383,
        "lon": 11.1661
    },
    "52.22.172.27": {
        "country_iso": "US",
        "country": "United States",
        "city": "Ashburn",
        "lat": 39.0469,
        "lon": -77.4903
    },
    "83.170.60.36": {
        "country_iso": "DE",
        "country": "Germany",
        "city": null,
        "lat": 51.2993,
        "lon": 9.491
    },
    "145.100.181.27": {
        "country_iso": "NL",
        "country": "Netherlands",
        "city": "Eindhoven",
        "lat": 51.4357,
        "lon": 5.4842
    },
    "167.160.40.65": {
        "country_iso": "DE",
        "country": "Germany",
        "city": "Frankfurt am Main",
        "lat": 50.1033,
        "lon": 8.6533
    },
    "193.46.104.19": {
        "country_iso": "AT",
        "country": "Austria",
        "city": null,
        "lat": 48.2048,
        "lon": 16.3801
    },
    "64.98.79.87": {
        "country_iso": "US",
        "country": "United States",
        "city": "Aurora",
        "lat": 39.6253,
        "lon": -104.7863
    },
    "187.73.144.77": {
        "country_iso": "BR",
        "country": "Brazil",
        "city": "Sao Jose do Rio Preto",
        "lat": -20.7784,
        "lon": -49.3518
    },
    "13.208.116.113": {
        "country_iso": "JP",
        "country": "Japan",
        "city": "Osaka",
        "lat": 34.6946,
        "lon": 135.5021
    },
    "80.73.130.123": {
        "country_iso": "NL",
        "country": "Netherlands",
        "city": null,
        "lat": 52.3824,
        "lon": 4.8995
    },
    "185.200.102.77": {
        "country_iso": "NL",
        "country": "Netherlands",
        "city": "Amsterdam",
        "lat": 52.3672,
        "lon": 4.918
    },
    "5.83.160.137": {
        "country_iso": "DE",
        "country": "Germany",
        "city": null,
        "lat": 51.2993,
        "lon": 9.491
    },
    "217.197.95.68": {
        "country_iso": "DE",
        "country": "Germany",
        "city": "Berlin",
        "lat": 52.5221,
        "lon": 13.4814
    },
    "64.239.240.36": {
        "country_iso": "US",
        "country": "United States",
        "city": null,
        "lat": 37.751,
        "lon": -97.822
    },
    "194.157.148.236": {
        "country_iso": "FI",
        "country": "Finland",
        "city": "Espoo",
        "lat": 60.1977,
        "lon": 24.6774
    },
    "78.158.81.4": {
        "country_iso": "GB",
        "country": "United Kingdom",
        "city": null,
        "lat": 51.4964,
        "lon": -0.1224
    },
    "139.162.156.136": {
        "country_iso": "DE",
        "country": "Germany",
        "city": "Frankfurt am Main",
        "lat": 50.1188,
        "lon": 8.6843
    },
    "52.15.184.123": {
        "country_iso": "US",
        "country": "United States",
        "city": "Columbus",
        "lat": 39.9625,
        "lon": -83.0061
    },
    "93.186.40.202": {
        "country_iso": "GB",
        "country": "United Kingdom",
        "city": "Killin",
        "lat": 56.45,
        "lon": -4.2833
    },
    "104.254.54.4": {
        "country_iso": "US",
        "country": "United States",
        "city": "Baton Rouge",
        "lat": 30.3927,
        "lon": -91.0014
    },
    "178.249.153.30": {
        "country_iso": "NL",
        "country": "Netherlands",
        "city": "Amsterdam",
        "lat": 52.3759,
        "lon": 4.8975
    },
    "37.203.56.78": {
        "country_iso": "NL",
        "country": "Netherlands",
        "city": "Arnhem",
        "lat": 51.9707,
        "lon": 5.9182
    },
    "159.196.91.171": {
        "country_iso": "AU",
        "country": "Australia",
        "city": "Perth",
        "lat": -31.9377,
        "lon": 115.8529
    },
    "185.56.54.19": {
        "country_iso": "NL",
        "country": "Netherlands",
        "city": null,
        "lat": 52.3824,
        "lon": 4.8995
    },
    "185.138.55.231": {
        "country_iso": "DE",
        "country": "Germany",
        "city": null,
        "lat": 51.2993,
        "lon": 9.491
    },
    "195.34.174.109": {
        "country_iso": "DE",
        "country": "Germany",
        "city": null,
        "lat": 50.1169,
        "lon": 8.6837
    },
    "109.235.51.6": {
        "country_iso": "NL",
        "country": "Netherlands",
        "city": null,
        "lat": 52.3824,
        "lon": 4.8995
    },
    "193.106.164.98": {
        "country_iso": "DK",
        "country": "Denmark",
        "city": "Copenhagen",
        "lat": 55.6802,
        "lon": 12.5892
    },
    "192.30.89.86": {
        "country_iso": "CA",
        "country": "Canada",
        "city": "Burnaby",
        "lat": 49.2311,
        "lon": -122.956
    },
    "103.141.25.11": {
        "country_iso": "GB",
        "country": "United Kingdom",
        "city": "London",
        "lat": 51.5164,
        "lon": -0.093
    },
    "89.31.56.43": {
        "country_iso": "NL",
        "country": "Netherlands",
        "city": "Rotterdam",
        "lat": 51.9458,
        "lon": 4.4022
    },
    "130.226.249.126": {
        "country_iso": "DK",
        "country": "Denmark",
        "city": "Copenhagen",
        "lat": 55.7056,
        "lon": 12.5683
    },
    "37.128.134.97": {
        "country_iso": "GB",
        "country": "United Kingdom",
        "city": null,
        "lat": 51.4964,
        "lon": -0.1224
    },
    "212.126.61.70": {
        "country_iso": "GB",
        "country": "United Kingdom",
        "city": "London",
        "lat": 51.5164,
        "lon": -0.093
    },
    "174.136.100.234": {
        "country_iso": "US",
        "country": "United States",
        "city": null,
        "lat": 37.751,
        "lon": -97.822
    },
    "192.96.206.13": {
        "country_iso": "US",
        "country": "United States",
        "city": "Bethesda",
        "lat": 38.9893,
        "lon": -77.1586
    },
    "91.102.8.206": {
        "country_iso": "DE",
        "country": "Germany",
        "city": null,
        "lat": 51.2993,
        "lon": 9.491
    },
    "185.5.201.240": {
        "country_iso": "IT",
        "country": "Italy",
        "city": null,
        "lat": 43.1479,
        "lon": 12.1097
    },
    "85.200.239.110": {
        "country_iso": "NO",
        "country": "Norway",
        "city": "Bones",
        "lat": 60.3266,
        "lon": 5.3083
    },
    "192.122.200.171": {
        "country_iso": "US",
        "country": "United States",
        "city": null,
        "lat": 37.751,
        "lon": -97.822
    },
    "45.13.104.152": {
        "country_iso": "FR",
        "country": "France",
        "city": "Paris",
        "lat": 48.8323,
        "lon": 2.4075
    },
    "13.113.70.195": {
        "country_iso": "JP",
        "country": "Japan",
        "city": "Tokyo",
        "lat": 35.6893,
        "lon": 139.6899
    },
    "201.174.85.6": {
        "country_iso": "MX",
        "country": "Mexico",
        "city": "Mexico City",
        "lat": 19.4326,
        "lon": -99.1332
    },
    "217.19.17.23": {
        "country_iso": "NL",
        "country": "Netherlands",
        "city": "Alphen aan den Rijn",
        "lat": 52.1479,
        "lon": 4.6694
    },
    "204.9.92.171": {
        "country_iso": "US",
        "country": "United States",
        "city": null,
        "lat": 37.751,
        "lon": -97.822
    },
    "13.56.89.157": {
        "country_iso": "US",
        "country": "United States",
        "city": "San Jose",
        "lat": 37.1835,
        "lon": -121.7714
    },
    "172.105.182.85": {
        "country_iso": "AU",
        "country": "Australia",
        "city": "Sydney",
        "lat": -33.8715,
        "lon": 151.2006
    },
    "103.2.186.197": {
        "country_iso": "NC",
        "country": "New Caledonia",
        "city": null,
        "lat": -21.5,
        "lon": 165.5
    },
    "95.141.83.106": {
        "country_iso": "NO",
        "country": "Norway",
        "city": "Bergen",
        "lat": 60.3963,
        "lon": 5.3214
    },
    "94.237.9.232": {
        "country_iso": "FI",
        "country": "Finland",
        "city": "Helsinki",
        "lat": 60.1792,
        "lon": 24.9337
    },
    "143.208.160.9": {
        "country_iso": "BR",
        "country": "Brazil",
        "city": null,
        "lat": -22.8305,
        "lon": -43.2192
    },
    "165.254.21.124": {
        "country_iso": "US",
        "country": "United States",
        "city": "Los Angeles",
        "lat": 33.9993,
        "lon": -118.2868
    },
    "119.17.170.245": {
        "country_iso": "AU",
        "country": "Australia",
        "city": "Sydney",
        "lat": -33.8715,
        "lon": 151.2006
    },
    "78.153.194.4": {
        "country_iso": "IE",
        "country": "Ireland",
        "city": null,
        "lat": 53.3472,
        "lon": -6.2439
    },
    "85.220.161.84": {
        "country_iso": "DE",
        "country": "Germany",
        "city": "Kupferzell",
        "lat": 49.2275,
        "lon": 9.6949
    },
    "185.93.175.22": {
        "country_iso": "NL",
        "country": "Netherlands",
        "city": null,
        "lat": 52.3824,
        "lon": 4.8995
    },
    "45.79.137.222": {
        "country_iso": "US",
        "country": "United States",
        "city": "Cedar Knolls",
        "lat": 40.8229,
        "lon": -74.4592
    },
    "62.78.96.149": {
        "country_iso": "FI",
        "country": "Finland",
        "city": null,
        "lat": 60.1717,
        "lon": 24.9349
    },
    "164.113.50.50": {
        "country_iso": "US",
        "country": "United States",
        "city": "Overland Park",
        "lat": 38.9507,
        "lon": -94.6824
    },
    "141.136.120.48": {
        "country_iso": "NL",
        "country": "Netherlands",
        "city": "Capelle aan den IJssel",
        "lat": 51.9317,
        "lon": 4.6022
    },
    "213.254.1.30": {
        "country_iso": "IT",
        "country": "Italy",
        "city": "Avigliana",
        "lat": 45.075,
        "lon": 7.3891
    },
    "193.247.170.254": {
        "country_iso": "CH",
        "country": "Switzerland",
        "city": null,
        "lat": 47.1449,
        "lon": 8.1551
    },
    "203.122.222.147": {
        "country_iso": "AU",
        "country": "Australia",
        "city": "Adelaide",
        "lat": -34.9281,
        "lon": 138.5999
    },
    "130.89.6.17": {
        "country_iso": "NL",
        "country": "Netherlands",
        "city": null,
        "lat": 52.3824,
        "lon": 4.8995
    },
    "35.176.195.43": {
        "country_iso": "GB",
        "country": "United Kingdom",
        "city": "London",
        "lat": 51.5164,
        "lon": -0.093
    },
    "128.32.158.100": {
        "country_iso": "US",
        "country": "United States",
        "city": "Moraga",
        "lat": 37.8414,
        "lon": -122.1254
    },
    "91.232.156.99": {
        "country_iso": "FI",
        "country": "Finland",
        "city": null,
        "lat": 60.1717,
        "lon": 24.9349
    },
    "77.73.231.141": {
        "country_iso": "NL",
        "country": "Netherlands",
        "city": "Monster",
        "lat": 52.0239,
        "lon": 4.1806
    },
    "194.187.248.66": {
        "country_iso": "GB",
        "country": "United Kingdom",
        "city": null,
        "lat": 51.4964,
        "lon": -0.1224
    },
    "196.10.54.133": {
        "country_iso": "ZA",
        "country": "South Africa",
        "city": null,
        "lat": -29,
        "lon": 24
    },
    "91.202.41.253": {
        "country_iso": "DE",
        "country": "Germany",
        "city": null,
        "lat": 51.2993,
        "lon": 9.491
    },
    "80.67.181.30": {
        "country_iso": "BE",
        "country": "Belgium",
        "city": "Brussels",
        "lat": 50.8534,
        "lon": 4.347
    },
    "159.203.1.207": {
        "country_iso": "CA",
        "country": "Canada",
        "city": "Toronto",
        "lat": 43.6547,
        "lon": -79.3623
    },
    "196.49.5.45": {
        "country_iso": "TZ",
        "country": "Tanzania",
        "city": null,
        "lat": -6.8227,
        "lon": 39.291
    },
    "45.56.92.54": {
        "country_iso": "US",
        "country": "United States",
        "city": "Fremont",
        "lat": 37.5625,
        "lon": -122.0004
    },
    "178.217.129.212": {
        "country_iso": "FI",
        "country": "Finland",
        "city": null,
        "lat": 60.1717,
        "lon": 24.9349
    },
    "85.222.193.228": {
        "country_iso": "NL",
        "country": "Netherlands",
        "city": null,
        "lat": 52.3824,
        "lon": 4.8995
    },
    "185.50.191.247": {
        "country_iso": "CH",
        "country": "Switzerland",
        "city": null,
        "lat": 47.1449,
        "lon": 8.1551
    },
    "37.221.193.100": {
        "country_iso": "DE",
        "country": "Germany",
        "city": null,
        "lat": 51.2993,
        "lon": 9.491
    },
    "161.129.153.254": {
        "country_iso": "US",
        "country": "United States",
        "city": "Dallas",
        "lat": 32.8137,
        "lon": -96.8704
    },
    "78.41.154.18": {
        "country_iso": "GB",
        "country": "United Kingdom",
        "city": "Lytham St Annes",
        "lat": 53.746,
        "lon": -2.9948
    },
    "23.157.112.123": {
        "country_iso": "US",
        "country": "United States",
        "city": null,
        "lat": 37.751,
        "lon": -97.822
    },
    "188.126.109.12": {
        "country_iso": "NL",
        "country": "Netherlands",
        "city": "Venlo",
        "lat": 51.3859,
        "lon": 6.2028
    },
    "37.152.182.132": {
        "country_iso": "IR",
        "country": "Iran",
        "city": null,
        "lat": 35.698,
        "lon": 51.4115
    },
    "94.76.229.204": {
        "country_iso": "GB",
        "country": "United Kingdom",
        "city": null,
        "lat": 51.4964,
        "lon": -0.1224
    },
    "5.57.94.163": {
        "country_iso": "GB",
        "country": "United Kingdom",
        "city": "Harston",
        "lat": 52.1312,
        "lon": 0.205
    },
    "142.93.93.188": {
        "country_iso": "US",
        "country": "United States",
        "city": "Santa Clara",
        "lat": 37.3417,
        "lon": -121.9753
    },
    "87.108.57.169": {
        "country_iso": "FI",
        "country": "Finland",
        "city": "Helsinki",
        "lat": 60.1797,
        "lon": 24.9344
    },
    "185.68.163.230": {
        "country_iso": "NL",
        "country": "Netherlands",
        "city": null,
        "lat": 52.3824,
        "lon": 4.8995
    },
    "185.36.233.116": {
        "country_iso": "GR",
        "country": "Greece",
        "city": null,
        "lat": 37.9667,
        "lon": 23.7167
    },
    "81.171.183.186": {
        "country_iso": "GB",
        "country": "United Kingdom",
        "city": "London",
        "lat": 51.5708,
        "lon": -0.1033
    },
    "185.38.24.57": {
        "country_iso": "DK",
        "country": "Denmark",
        "city": null,
        "lat": 55.7123,
        "lon": 12.0564
    },
    "85.118.58.163": {
        "country_iso": "FR",
        "country": "France",
        "city": "Barby",
        "lat": 45.5709,
        "lon": 5.9883
    },
    "93.95.0.217": {
        "country_iso": "NL",
        "country": "Netherlands",
        "city": "Werkendam",
        "lat": 51.8061,
        "lon": 4.8951
    },
    "80.76.80.28": {
        "country_iso": "IT",
        "country": "Italy",
        "city": "Adrara San Martino",
        "lat": 45.6985,
        "lon": 9.9482
    },
    "91.224.149.112": {
        "country_iso": "FR",
        "country": "France",
        "city": null,
        "lat": 48.8582,
        "lon": 2.3387
    },
    "83.96.201.176": {
        "country_iso": "NL",
        "country": "Netherlands",
        "city": "Almelo",
        "lat": 52.369,
        "lon": 6.657
    },
    "185.70.144.117": {
        "country_iso": "DE",
        "country": "Germany",
        "city": null,
        "lat": 51.2993,
        "lon": 9.491
    },
    "185.120.22.17": {
        "country_iso": "DE",
        "country": "Germany",
        "city": "Bad Zwischenahn",
        "lat": 53.1715,
        "lon": 8.0408
    },
    "185.117.213.230": {
        "country_iso": "DE",
        "country": "Germany",
        "city": "Hagen im Bremischen",
        "lat": 53.3608,
        "lon": 8.6411
    },
    "213.168.176.84": {
        "country_iso": "CZ",
        "country": "Czechia",
        "city": "Mlad\u00e1 Boleslav",
        "lat": 50.4113,
        "lon": 14.9113
    },
    "134.195.101.201": {
        "country_iso": "US",
        "country": "United States",
        "city": "Fremont",
        "lat": 37.5625,
        "lon": -122.0004
    },
    "194.116.178.10": {
        "country_iso": "DK",
        "country": "Denmark",
        "city": null,
        "lat": 55.7123,
        "lon": 12.0564
    },
    "195.24.73.3": {
        "country_iso": "LU",
        "country": "Luxembourg",
        "city": null,
        "lat": 49.7498,
        "lon": 6.1661
    },
    "62.210.156.8": {
        "country_iso": "FR",
        "country": "France",
        "city": null,
        "lat": 48.8582,
        "lon": 2.3387
    },
    "50.116.41.174": {
        "country_iso": "US",
        "country": "United States",
        "city": "Atlanta",
        "lat": 33.844,
        "lon": -84.4784
    },
    "63.223.226.131": {
        "country_iso": "US",
        "country": "United States",
        "city": null,
        "lat": 37.751,
        "lon": -97.822
    },
    "128.164.88.185": {
        "country_iso": "US",
        "country": "United States",
        "city": "Washington",
        "lat": 38.9009,
        "lon": -77.0464
    },
    "109.234.105.30": {
        "country_iso": "DE",
        "country": "Germany",
        "city": null,
        "lat": 51.2993,
        "lon": 9.491
    },
    "134.19.182.14": {
        "country_iso": "NL",
        "country": "Netherlands",
        "city": null,
        "lat": 52.3824,
        "lon": 4.8995
    },
    "185.174.170.115": {
        "country_iso": "CZ",
        "country": "Czechia",
        "city": null,
        "lat": 50.0853,
        "lon": 14.411
    },
    "94.103.96.97": {
        "country_iso": "CH",
        "country": "Switzerland",
        "city": "L'Orient",
        "lat": 46.5912,
        "lon": 6.2566
    },
    "70.36.170.6": {
        "country_iso": "US",
        "country": "United States",
        "city": null,
        "lat": 37.751,
        "lon": -97.822
    },
    "81.21.136.3": {
        "country_iso": "NL",
        "country": "Netherlands",
        "city": "Amersfoort",
        "lat": 52.1849,
        "lon": 5.3954
    },
    "82.76.255.222": {
        "country_iso": "RO",
        "country": "Romania",
        "city": "Bucharest",
        "lat": 44.405,
        "lon": 26.0718
    },
    "204.137.12.2": {
        "country_iso": "US",
        "country": "United States",
        "city": "New York",
        "lat": 40.7768,
        "lon": -73.9726
    },
    "213.128.151.249": {
        "country_iso": "DE",
        "country": "Germany",
        "city": "Hamburg",
        "lat": 53.5544,
        "lon": 9.9946
    },
    "80.71.82.106": {
        "country_iso": "DK",
        "country": "Denmark",
        "city": null,
        "lat": 55.7123,
        "lon": 12.0564
    },
    "203.175.175.197": {
        "country_iso": "SG",
        "country": "Singapore",
        "city": null,
        "lat": 1.3673,
        "lon": 103.8014
    },
    "193.162.154.27": {
        "country_iso": "DK",
        "country": "Denmark",
        "city": null,
        "lat": 55.7123,
        "lon": 12.0564
    },
    "83.136.252.93": {
        "country_iso": "GB",
        "country": "United Kingdom",
        "city": null,
        "lat": 51.4964,
        "lon": -0.1224
    },
    "52.76.214.87": {
        "country_iso": "SG",
        "country": "Singapore",
        "city": "Singapore",
        "lat": 1.3036,
        "lon": 103.8554
    },
    "185.157.208.249": {
        "country_iso": "GR",
        "country": "Greece",
        "city": "Athens",
        "lat": 37.9842,
        "lon": 23.7353
    },
    "212.25.27.3": {
        "country_iso": "CH",
        "country": "Switzerland",
        "city": "Uitikon",
        "lat": 47.3707,
        "lon": 8.4624
    },
    "149.20.3.18": {
        "country_iso": "US",
        "country": "United States",
        "city": null,
        "lat": 37.751,
        "lon": -97.822
    },
    "41.175.51.198": {
        "country_iso": "MU",
        "country": "Mauritius",
        "city": null,
        "lat": -20.3,
        "lon": 57.5833
    },
    "45.135.151.26": {
        "country_iso": "DE",
        "country": "Germany",
        "city": null,
        "lat": 51.2993,
        "lon": 9.491
    },
    "23.130.139.81": {
        "country_iso": "CA",
        "country": "Canada",
        "city": null,
        "lat": 43.6319,
        "lon": -79.3716
    },
    "84.2.32.215": {
        "country_iso": "HU",
        "country": "Hungary",
        "city": null,
        "lat": 47.4919,
        "lon": 19.05
    },
    "77.237.224.26": {
        "country_iso": "DE",
        "country": "Germany",
        "city": null,
        "lat": 51.2993,
        "lon": 9.491
    },
    "91.216.110.61": {
        "country_iso": "FR",
        "country": "France",
        "city": null,
        "lat": 48.8582,
        "lon": 2.3387
    },
    "195.22.19.34": {
        "country_iso": "PT",
        "country": "Portugal",
        "city": "Queluz",
        "lat": 38.7584,
        "lon": -9.2495
    },
    "62.77.130.253": {
        "country_iso": "HU",
        "country": "Hungary",
        "city": "Budapest",
        "lat": 47.5636,
        "lon": 19.0947
    },
    "192.108.73.88": {
        "country_iso": "DE",
        "country": "Germany",
        "city": null,
        "lat": 51.2993,
        "lon": 9.491
    },
    "193.176.144.164": {
        "country_iso": "NL",
        "country": "Netherlands",
        "city": null,
        "lat": 52.3824,
        "lon": 4.8995
    },
    "61.200.92.132": {
        "country_iso": "JP",
        "country": "Japan",
        "city": null,
        "lat": 35.6897,
        "lon": 139.6895
    },
    "185.122.101.168": {
        "country_iso": "FR",
        "country": "France",
        "city": "Nantes",
        "lat": 47.2145,
        "lon": -1.5512
    },
    "213.207.9.61": {
        "country_iso": "NL",
        "country": "Netherlands",
        "city": null,
        "lat": 52.3824,
        "lon": 4.8995
    },
    "150.254.166.148": {
        "country_iso": "PL",
        "country": "Poland",
        "city": "Poznan",
        "lat": 52.4052,
        "lon": 16.9339
    },
    "202.32.157.84": {
        "country_iso": "JP",
        "country": "Japan",
        "city": "Tokyo",
        "lat": 35.6893,
        "lon": 139.6899
    },
    "212.218.193.200": {
        "country_iso": "DE",
        "country": "Germany",
        "city": null,
        "lat": 51.2993,
        "lon": 9.491
    },
    "217.160.211.250": {
        "country_iso": "DE",
        "country": "Germany",
        "city": null,
        "lat": 51.2993,
        "lon": 9.491
    },
    "178.249.153.39": {
        "country_iso": "NL",
        "country": "Netherlands",
        "city": "Amsterdam",
        "lat": 52.3759,
        "lon": 4.8975
    },
    "193.1.33.23": {
        "country_iso": "IE",
        "country": "Ireland",
        "city": "Dublin",
        "lat": 53.3379,
        "lon": -6.2591
    },
    "206.108.0.104": {
        "country_iso": "CA",
        "country": "Canada",
        "city": null,
        "lat": 43.6319,
        "lon": -79.3716
    },
    "68.71.96.252": {
        "country_iso": "US",
        "country": "United States",
        "city": null,
        "lat": 36.1671,
        "lon": -86.7861
    },
    "172.93.16.166": {
        "country_iso": "CA",
        "country": "Canada",
        "city": "Prevost",
        "lat": 45.8708,
        "lon": -74.0847
    },
    "185.52.236.36": {
        "country_iso": "NL",
        "country": "Netherlands",
        "city": "Cuijk",
        "lat": 51.7285,
        "lon": 5.8849
    },
    "192.26.105.218": {
        "country_iso": "FI",
        "country": "Finland",
        "city": "Turku",
        "lat": 60.4504,
        "lon": 22.2867
    },
    "103.219.152.35": {
        "country_iso": "NL",
        "country": "Netherlands",
        "city": null,
        "lat": 52.3824,
        "lon": 4.8995
    },
    "103.6.84.107": {
        "country_iso": "HK",
        "country": "Hong Kong",
        "city": "Central",
        "lat": 22.2908,
        "lon": 114.1501
    },
    "192.42.123.22": {
        "country_iso": "NL",
        "country": "Netherlands",
        "city": "Handel",
        "lat": 51.5791,
        "lon": 5.7074
    },
    "212.98.93.10": {
        "country_iso": "DK",
        "country": "Denmark",
        "city": "Pr\u00e6st\u00f8",
        "lat": 55.1216,
        "lon": 12.0566
    },
    "185.5.202.122": {
        "country_iso": "IT",
        "country": "Italy",
        "city": null,
        "lat": 43.1479,
        "lon": 12.1097
    },
    "207.126.136.113": {
        "country_iso": "US",
        "country": "United States",
        "city": "Edgewater",
        "lat": 40.8327,
        "lon": -73.9712
    },
    "94.185.81.36": {
        "country_iso": "SE",
        "country": "Sweden",
        "city": "Stockholm",
        "lat": 59.3274,
        "lon": 18.0653
    },
    "45.129.95.6": {
        "country_iso": "GB",
        "country": "United Kingdom",
        "city": null,
        "lat": 51.4964,
        "lon": -0.1224
    },
    "193.135.150.59": {
        "country_iso": "CH",
        "country": "Switzerland",
        "city": null,
        "lat": 47.1449,
        "lon": 8.1551
    },
    "52.10.159.54": {
        "country_iso": "US",
        "country": "United States",
        "city": "Boardman",
        "lat": 45.8234,
        "lon": -119.7257
    },
    "64.40.23.206": {
        "country_iso": "US",
        "country": "United States",
        "city": null,
        "lat": 37.751,
        "lon": -97.822
    },
    "134.195.121.46": {
        "country_iso": "US",
        "country": "United States",
        "city": "Fremont",
        "lat": 37.5172,
        "lon": -121.9191
    },
    "185.2.152.103": {
        "country_iso": "SE",
        "country": "Sweden",
        "city": "Stockholm",
        "lat": 59.3996,
        "lon": 17.9484
    },
    "95.111.216.171": {
        "country_iso": "AU",
        "country": "Australia",
        "city": "Sydney",
        "lat": -33.8715,
        "lon": 151.2006
    },
    "193.200.238.41": {
        "country_iso": "NO",
        "country": "Norway",
        "city": "Sandefjord",
        "lat": 59.1728,
        "lon": 10.2221
    },
    "172.105.15.136": {
        "country_iso": "CA",
        "country": "Canada",
        "city": "Toronto",
        "lat": 43.6547,
        "lon": -79.3623
    },
    "145.40.89.71": {
        "country_iso": "US",
        "country": "United States",
        "city": "Ashburn",
        "lat": 39.0469,
        "lon": -77.4903
    },
    "217.195.114.152": {
        "country_iso": "NL",
        "country": "Netherlands",
        "city": null,
        "lat": 52.3824,
        "lon": 4.8995
    },
    "172.105.42.29": {
        "country_iso": "IN",
        "country": "India",
        "city": "Mumbai",
        "lat": 19.0748,
        "lon": 72.8856
    },
    "5.1.66.6": {
        "country_iso": "DE",
        "country": "Germany",
        "city": "Munich",
        "lat": 48.1203,
        "lon": 11.5807
    },
    "200.160.6.171": {
        "country_iso": "BR",
        "country": "Brazil",
        "city": "S\u00e3o Paulo",
        "lat": -23.6283,
        "lon": -46.6409
    },
    "212.45.52.2": {
        "country_iso": "NL",
        "country": "Netherlands",
        "city": "Heemserveen",
        "lat": 52.5827,
        "lon": 6.5749
    },
    "109.238.49.65": {
        "country_iso": "DK",
        "country": "Denmark",
        "city": "Silkeborg",
        "lat": 56.1702,
        "lon": 9.5449
    },
    "217.61.244.212": {
        "country_iso": "SE",
        "country": "Sweden",
        "city": null,
        "lat": 59.3247,
        "lon": 18.056
    },
    "77.246.27.26": {
        "country_iso": "GB",
        "country": "United Kingdom",
        "city": "London",
        "lat": 51.5828,
        "lon": -0.3448
    },
    "185.108.16.206": {
        "country_iso": "SE",
        "country": "Sweden",
        "city": "Stockholm",
        "lat": 59.3287,
        "lon": 18.0717
    },
    "213.5.10.55": {
        "country_iso": "PL",
        "country": "Poland",
        "city": null,
        "lat": 52.2394,
        "lon": 21.0362
    },
    "204.246.114.130": {
        "country_iso": "US",
        "country": "United States",
        "city": "Minneapolis",
        "lat": 44.9948,
        "lon": -93.2548
    },
    "45.150.40.179": {
        "country_iso": "NL",
        "country": "Netherlands",
        "city": null,
        "lat": 52.3824,
        "lon": 4.8995
    },
    "128.3.121.244": {
        "country_iso": "US",
        "country": "United States",
        "city": null,
        "lat": 37.751,
        "lon": -97.822
    },
    "212.237.146.133": {
        "country_iso": "SE",
        "country": "Sweden",
        "city": null,
        "lat": 59.3247,
        "lon": 18.056
    },
    "51.77.110.247": {
        "country_iso": "FR",
        "country": "France",
        "city": null,
        "lat": 48.8582,
        "lon": 2.3387
    },
    "66.207.196.130": {
        "country_iso": "CA",
        "country": "Canada",
        "city": "Toronto",
        "lat": 43.6426,
        "lon": -79.4002
    },
    "195.200.224.123": {
        "country_iso": "BE",
        "country": "Belgium",
        "city": null,
        "lat": 50.8509,
        "lon": 4.3447
    },
    "37.252.235.214": {
        "country_iso": "AT",
        "country": "Austria",
        "city": "Vienna",
        "lat": 48.1951,
        "lon": 16.3483
    },
    "31.3.8.51": {
        "country_iso": "NL",
        "country": "Netherlands",
        "city": "Tiel",
        "lat": 51.8929,
        "lon": 5.4157
    },
    "139.162.106.78": {
        "country_iso": "JP",
        "country": "Japan",
        "city": "Tokyo",
        "lat": 35.6893,
        "lon": 139.6899
    },
    "45.121.183.100": {
        "country_iso": "ZA",
        "country": "South Africa",
        "city": "Kempton Park",
        "lat": -26.1008,
        "lon": 28.2391
    },
    "217.115.1.67": {
        "country_iso": "DE",
        "country": "Germany",
        "city": null,
        "lat": 51.2993,
        "lon": 9.491
    },
    "188.117.58.137": {
        "country_iso": "FI",
        "country": "Finland",
        "city": null,
        "lat": 60.1717,
        "lon": 24.9349
    },
    "31.204.150.13": {
        "country_iso": "NL",
        "country": "Netherlands",
        "city": "Rotterdam",
        "lat": 51.93,
        "lon": 4.4264
    },
    "212.83.212.122": {
        "country_iso": "NL",
        "country": "Netherlands",
        "city": "Eindhoven",
        "lat": 51.4506,
        "lon": 5.3978
    },
    "109.74.240.242": {
        "country_iso": "GB",
        "country": "United Kingdom",
        "city": "Chatham",
        "lat": 51.3537,
        "lon": 0.5287
    },
    "46.19.36.12": {
        "country_iso": "NL",
        "country": "Netherlands",
        "city": null,
        "lat": 52.3824,
        "lon": 4.8995
    },
    "87.237.165.30": {
        "country_iso": "GB",
        "country": "United Kingdom",
        "city": "Middlesbrough",
        "lat": 54.5585,
        "lon": -1.1476
    },
    "87.116.6.32": {
        "country_iso": "DK",
        "country": "Denmark",
        "city": "Herning",
        "lat": 56.1455,
        "lon": 8.9781
    },
    "185.65.241.51": {
        "country_iso": "DE",
        "country": "Germany",
        "city": "Eggenstein-Leopoldshafen",
        "lat": 49.0894,
        "lon": 8.4008
    },
    "204.15.11.33": {
        "country_iso": "US",
        "country": "United States",
        "city": null,
        "lat": 37.751,
        "lon": -97.822
    },
    "139.59.43.142": {
        "country_iso": "IN",
        "country": "India",
        "city": "Bengaluru",
        "lat": 12.9634,
        "lon": 77.5855
    },
    "64.73.64.140": {
        "country_iso": "US",
        "country": "United States",
        "city": null,
        "lat": 37.751,
        "lon": -97.822
    },
    "88.213.188.38": {
        "country_iso": "CH",
        "country": "Switzerland",
        "city": "Schaffhausen",
        "lat": 47.7191,
        "lon": 8.6246
    },
    "193.106.119.59": {
        "country_iso": "FR",
        "country": "France",
        "city": null,
        "lat": 48.8582,
        "lon": 2.3387
    },
    "205.173.255.242": {
        "country_iso": "CA",
        "country": "Canada",
        "city": "Montreal",
        "lat": 45.4724,
        "lon": -73.6985
    },
    "5.158.213.65": {
        "country_iso": "GB",
        "country": "United Kingdom",
        "city": null,
        "lat": 51.4964,
        "lon": -0.1224
    },
    "2.59.64.36": {
        "country_iso": "BE",
        "country": "Belgium",
        "city": null,
        "lat": 50.8509,
        "lon": 4.3447
    },
    "129.143.77.1": {
        "country_iso": "DE",
        "country": "Germany",
        "city": "Leimen",
        "lat": 49.3415,
        "lon": 8.6925
    },
    "170.39.197.44": {
        "country_iso": "CA",
        "country": "Canada",
        "city": "Montreal",
        "lat": 45.4499,
        "lon": -73.8104
    },
    "46.227.66.10": {
        "country_iso": "SE",
        "country": "Sweden",
        "city": null,
        "lat": 59.3247,
        "lon": 18.056
    },
    "213.209.102.95": {
        "country_iso": "DE",
        "country": "Germany",
        "city": "Hamburg",
        "lat": 53.5791,
        "lon": 9.9942
    },
    "23.141.112.9": {
        "country_iso": "US",
        "country": "United States",
        "city": "Fremont",
        "lat": 37.5172,
        "lon": -121.9191
    },
    "195.54.164.109": {
        "country_iso": "DE",
        "country": "Germany",
        "city": null,
        "lat": 51.2993,
        "lon": 9.491
    },
    "74.118.39.82": {
        "country_iso": "CA",
        "country": "Canada",
        "city": "Toronto",
        "lat": 43.6547,
        "lon": -79.3623
    },
    "98.128.171.68": {
        "country_iso": "SE",
        "country": "Sweden",
        "city": null,
        "lat": 59.3247,
        "lon": 18.056
    },
    "5.61.190.124": {
        "country_iso": "DE",
        "country": "Germany",
        "city": "Berlin",
        "lat": 52.5196,
        "lon": 13.4069
    },
    "78.33.35.246": {
        "country_iso": "GB",
        "country": "United Kingdom",
        "city": "Greenford",
        "lat": 51.5263,
        "lon": -0.3559
    },
    "45.142.247.147": {
        "country_iso": "DE",
        "country": "Germany",
        "city": "Berlin",
        "lat": 52.5196,
        "lon": 13.4069
    },
    "91.239.97.26": {
        "country_iso": "SI",
        "country": "Slovenia",
        "city": null,
        "lat": 46.0833,
        "lon": 15
    },
    "98.143.95.34": {
        "country_iso": "CA",
        "country": "Canada",
        "city": "Vancouver",
        "lat": 49.2462,
        "lon": -123.108
    },
    "176.122.99.75": {
        "country_iso": "UA",
        "country": "Ukraine",
        "city": "Kyiv",
        "lat": 50.458,
        "lon": 30.5303
    },
    "72.36.126.205": {
        "country_iso": "US",
        "country": "United States",
        "city": null,
        "lat": 37.751,
        "lon": -97.822
    },
    "93.94.224.87": {
        "country_iso": "NL",
        "country": "Netherlands",
        "city": null,
        "lat": 52.3824,
        "lon": 4.8995
    },
    "94.142.247.64": {
        "country_iso": "NL",
        "country": "Netherlands",
        "city": null,
        "lat": 52.3824,
        "lon": 4.8995
    },
    "185.70.197.76": {
        "country_iso": "PL",
        "country": "Poland",
        "city": null,
        "lat": 52.2394,
        "lon": 21.0362
    },
    "185.63.175.128": {
        "country_iso": "FR",
        "country": "France",
        "city": null,
        "lat": 48.8582,
        "lon": 2.3387
    },
    "92.223.105.92": {
        "country_iso": "LU",
        "country": "Luxembourg",
        "city": "Luxembourg",
        "lat": 49.6113,
        "lon": 6.1294
    },
    "85.31.196.24": {
        "country_iso": "FR",
        "country": "France",
        "city": null,
        "lat": 48.8582,
        "lon": 2.3387
    },
    "18.231.44.45": {
        "country_iso": "BR",
        "country": "Brazil",
        "city": "S\u00e3o Paulo",
        "lat": -23.5335,
        "lon": -46.6359
    },
    "185.98.14.190": {
        "country_iso": "HR",
        "country": "Croatia",
        "city": null,
        "lat": 45.1667,
        "lon": 15.5
    },
    "104.200.18.129": {
        "country_iso": "US",
        "country": "United States",
        "city": "Richardson",
        "lat": 32.9473,
        "lon": -96.7028
    },
    "195.191.81.31": {
        "country_iso": null,
        "country": null,
        "city": null,
        "lat": 47,
        "lon": 8
    },
    "62.141.35.164": {
        "country_iso": "DE",
        "country": "Germany",
        "city": null,
        "lat": 51.2993,
        "lon": 9.491
    },
    "212.8.252.107": {
        "country_iso": "NL",
        "country": "Netherlands",
        "city": "Rotterdam",
        "lat": 51.9187,
        "lon": 4.4721
    },
    "93.93.68.99": {
        "country_iso": "ES",
        "country": "Spain",
        "city": null,
        "lat": 40.4172,
        "lon": -3.684
    },
    "212.10.11.214": {
        "country_iso": "DK",
        "country": "Denmark",
        "city": "Herlev",
        "lat": 55.7248,
        "lon": 12.4432
    },
    "192.162.230.35": {
        "country_iso": "DE",
        "country": "Germany",
        "city": null,
        "lat": 51.2993,
        "lon": 9.491
    },
    "92.54.7.29": {
        "country_iso": "ES",
        "country": "Spain",
        "city": "Barcelona",
        "lat": 41.387,
        "lon": 2.1701
    },
    "93.159.158.251": {
        "country_iso": "PL",
        "country": "Poland",
        "city": "Krakow",
        "lat": 50.0658,
        "lon": 19.94
    },
    "198.129.33.90": {
        "country_iso": "US",
        "country": "United States",
        "city": null,
        "lat": 37.751,
        "lon": -97.822
    },
    "46.30.8.23": {
        "country_iso": "GB",
        "country": "United Kingdom",
        "city": null,
        "lat": 51.4964,
        "lon": -0.1224
    },
    "117.120.13.125": {
        "country_iso": "AU",
        "country": "Australia",
        "city": "Sydney",
        "lat": -33.8715,
        "lon": 151.2006
    },
    "41.223.244.135": {
        "country_iso": "ZA",
        "country": "South Africa",
        "city": "Durban",
        "lat": -29.9056,
        "lon": 30.9405
    },
    "207.98.65.50": {
        "country_iso": "US",
        "country": "United States",
        "city": null,
        "lat": 45.5248,
        "lon": -122.6789
    },
    "128.127.31.126": {
        "country_iso": "GB",
        "country": "United Kingdom",
        "city": "Newton Aycliffe",
        "lat": 54.6,
        "lon": -1.55
    },
    "84.88.14.229": {
        "country_iso": "ES",
        "country": "Spain",
        "city": null,
        "lat": 40.4172,
        "lon": -3.684
    },
    "109.105.111.80": {
        "country_iso": "DK",
        "country": "Denmark",
        "city": null,
        "lat": 55.7123,
        "lon": 12.0564
    },
    "67.221.244.126": {
        "country_iso": "US",
        "country": "United States",
        "city": null,
        "lat": 37.751,
        "lon": -97.822
    },
    "217.61.244.211": {
        "country_iso": "SE",
        "country": "Sweden",
        "city": null,
        "lat": 59.3247,
        "lon": 18.056
    },
    "81.167.39.0": {
        "country_iso": "NO",
        "country": "Norway",
        "city": "Sortland",
        "lat": 68.7038,
        "lon": 15.4171
    },
    "203.5.76.128": {
        "country_iso": "AU",
        "country": "Australia",
        "city": "Melbourne",
        "lat": -37.8411,
        "lon": 144.9799
    },
    "125.18.112.64": {
        "country_iso": "IN",
        "country": "India",
        "city": "Mumbai",
        "lat": 19.0748,
        "lon": 72.8856
    },
    "61.246.223.0": {
        "country_iso": "IN",
        "country": "India",
        "city": "Mumbai",
        "lat": 19.0748,
        "lon": 72.8856
    },
    "61.95.154.64": {
        "country_iso": "IN",
        "country": "India",
        "city": "New Delhi",
        "lat": 28.6328,
        "lon": 77.2204
    },
    "210.151.179.128": {
        "country_iso": "JP",
        "country": "Japan",
        "city": "Sannomaru",
        "lat": 35.179,
        "lon": 136.8939
    },
    "38.112.151.64": {
        "country_iso": "US",
        "country": "United States",
        "city": null,
        "lat": 37.751,
        "lon": -97.822
    },
    "38.107.216.0": {
        "country_iso": "US",
        "country": "United States",
        "city": "Southlake",
        "lat": 32.9457,
        "lon": -97.1547
    },
    "154.18.169.64": {
        "country_iso": "US",
        "country": "United States",
        "city": null,
        "lat": 37.751,
        "lon": -97.822
    },
    "38.90.140.128": {
        "country_iso": "US",
        "country": "United States",
        "city": "Washington",
        "lat": 38.9011,
        "lon": -77.0452
    },